airport_id,iata_code,airport_name,icao_code,city,country,latitude,longitude
1,GKA,Goroka Airport,AYGA,Goroka,Papua New Guinea,-6.0816898346,145.391998291
2,MAG,Madang Airport,AYMD,Madang,Papua New Guinea,-5.2070798874,145.789001465
3,HGU,Mount Hagen Kagamuga Airport,AYMH,Mount Hagen,Papua New Guinea,-5.826789856,144.296005249
4,LAE,Nadzab Airport,AYNZ,Nadzab,Papua New Guinea,-6.569803,146.725977
5,POM,Port Moresby Jacksons International Airport,AYPY,Port Moresby,Papua New Guinea,-9.4433803558,147.2200012207
6,WWK,Wewak International Airport,AYWK,Wewak,Papua New Guinea,-3.5838301182,143.669006348
7,UAK,Narsarsuaq Airport,BGBW,Narssarssuaq,Greenland,61.1604995728,-45.4259986877
8,GOH,Godthaab / Nuuk Airport,BGGH,Godthaab,Greenland,64.19090271,-51.6781005859
9,SFJ,Kangerlussuaq Airport,BGSF,Sondrestrom,Greenland,67.0122218992,-50.7116031647
10,THU,Thule Air Base,BGTL,Thule,Greenland,76.5311965942,-68.7032012939
11,AEY,Akureyri Airport,BIAR,Akureyri,Iceland,65.6600036621,-18.0727005005
12,EGS,Egilsstaðir Airport,BIEG,Egilsstadir,Iceland,65.2833023071,-14.4013996124
13,HFN,Hornafjörður Airport,BIHN,Hofn,Iceland,64.295601,-15.2272
14,HZK,Húsavík Airport,BIHU,Husavik,Iceland,65.952301,-17.426001
15,IFJ,Ísafjörður Airport,BIIS,Isafjordur,Iceland,66.0580978394,-23.1352996826
16,KEF,Keflavik International Airport,BIKF,Keflavik,Iceland,63.9850006104,-22.6056003571
17,PFJ,Patreksfjörður Airport,BIPA,Patreksfjordur,Iceland,65.555801,-23.965
18,RKV,Reykjavik Airport,BIRK,Reykjavik,Iceland,64.1299972534,-21.9405994415
19,SIJ,Siglufjörður Airport,BISI,Siglufjordur,Iceland,66.133301,-18.9167
20,VEY,Vestmannaeyjar Airport,BIVM,Vestmannaeyjar,Iceland,63.4243011475,-20.2789001465
21,YAM,Sault Ste Marie Airport,CYAM,Sault Sainte Marie,Canada,46.4850006104,-84.5093994141
22,,Winnipeg / St. Andrews Airport,CYAV,Winnipeg,Canada,50.0564002991,-97.0325012207
23,,Halifax / CFB Shearwater Heliport,CYAW,Halifax,Canada,44.639702,-63.499401
24,YAY,St. Anthony Airport,CYAY,St. Anthony,Canada,51.3918991089,-56.0830993652
25,YAZ,Tofino / Long Beach Airport,CYAZ,Tofino,Canada,49.079833,-125.775583
26,YBB,Kugaaruk Airport,CYBB,Pelly Bay,Canada,68.534401,-89.808098
27,YBC,Baie Comeau Airport,CYBC,Baie Comeau,Canada,49.1324996948,-68.2043991089
28,YBG,CFB Bagotville,CYBG,Bagotville,Canada,48.3306007385,-70.9963989258
29,YBK,Baker Lake Airport,CYBK,Baker Lake,Canada,64.2988967896,-96.077796936
30,YBL,Campbell River Airport,CYBL,Campbell River,Canada,49.9508018494,-125.2710037231
31,YBR,Brandon Municipal Airport,CYBR,Brandon,Canada,49.91,-99.951897
32,YCB,Cambridge Bay Airport,CYCB,Cambridge Bay,Canada,69.1081008911,-105.138000488
33,YCD,Nanaimo Airport,CYCD,Nanaimo,Canada,49.0549702249,-123.869862556
34,YCG,Castlegar/West Kootenay Regional Airport,CYCG,Castlegar,Canada,49.2963981628,-117.632003784
35,YCH,Miramichi Airport,CYCH,Chatham,Canada,47.007801,-65.449203
36,YCL,Charlo Airport,CYCL,Charlo,Canada,47.990799,-66.330299
37,YCO,Kugluktuk Airport,CYCO,Coppermine,Canada,67.816704,-115.143997
38,YCT,Coronation Airport,CYCT,Coronation,Canada,52.0750007629,-111.444999695
39,YCW,Chilliwack Airport,CYCW,Chilliwack,Canada,49.1528015137,-121.939002991
40,YCY,Clyde River Airport,CYCY,Clyde River,Canada,70.4860992432,-68.5167007446
41,YZS,Coral Harbour Airport,CYZS,Coral Harbour,Canada,64.1932983398,-83.3593978882
42,YDA,Dawson City Airport,CYDA,Dawson,Canada,64.0430984497,-139.1280059814
43,YDB,Burwash Airport,CYDB,Burwash,Canada,61.3711013794,-139.0410003662
44,,Princeton Airport,CYDC,Princeton,Canada,49.4681015015,-120.511001587
45,YDF,Deer Lake Airport,CYDF,Deer Lake,Canada,49.2108001709,-57.3913993835
46,YDL,Dease Lake Airport,CYDL,Dease Lake,Canada,58.4221992493,-130.031997681
47,YDN,Dauphin Barker Airport,CYDN,Dauphin,Canada,51.1007995605,-100.0520019531
48,YDQ,Dawson Creek Airport,CYDQ,Dawson Creek,Canada,55.7422981262,-120.1829986572
49,YEG,Edmonton International Airport,CYEG,Edmonton,Canada,53.3097000122,-113.580001831
50,YEK,Arviat Airport,CYEK,Eskimo Point,Canada,61.0942001343,-94.0708007812
51,YEN,Estevan Airport,CYEN,Estevan,Canada,49.2103004456,-102.966003418
52,YET,Edson Airport,CYET,Edson,Canada,53.5788993835,-116.464996338
53,YEU,Eureka Airport,CYEU,Eureka,Canada,79.9946975708,-85.814201355
54,YEV,Inuvik Mike Zubko Airport,CYEV,Inuvik,Canada,68.3041992188,-133.483001709
55,YFB,Iqaluit Airport,CYFB,Iqaluit,Canada,63.756402,-68.555801
56,YFC,Fredericton Airport,CYFC,Fredericton,Canada,45.8689002991,-66.5372009277
57,YFE,Forestville Airport,CYFE,Forestville,Canada,48.7461013794,-69.0971984863
58,YFO,Flin Flon Airport,CYFO,Flin Flon,Canada,54.6781005859,-101.6819992065
59,YFR,Fort Resolution Airport,CYFR,Fort Resolution,Canada,61.1808013916,-113.690002441
60,YFS,Fort Simpson Airport,CYFS,Fort Simpson,Canada,61.7602005005,-121.2369995117
61,YGK,Kingston Norman Rogers Airport,CYGK,Kingston,Canada,44.2252998352,-76.5969009399
62,YGL,La Grande Rivière Airport,CYGL,La Grande Riviere,Canada,53.6253013611,-77.7042007446
63,YGP,Gaspé (Michel-Pouliot) Airport,CYGP,Gaspe,Canada,48.7752990723,-64.4785995483
64,YGQ,Geraldton Greenstone Regional Airport,CYGQ,Geraldton,Canada,49.778301239,-86.9393997192
65,YGR,Îles-de-la-Madeleine Airport,CYGR,Iles De La Madeleine,Canada,47.4247016907,-61.7780990601
66,YHB,Hudson Bay Airport,CYHB,Hudson Bay,Canada,52.8166999817,-102.310997009
67,YHD,Dryden Regional Airport,CYHD,Dryden,Canada,49.831699,-92.744202
68,YHI,Ulukhaktok Holman Airport,CYHI,Holman Island,Canada,70.762802124,-117.8059997559
69,YHK,Gjoa Haven Airport,CYHK,Gjoa Haven,Canada,68.635597229,-95.8497009277
70,YHM,John C. Munro Hamilton International Airport,CYHM,Hamilton,Canada,43.1735992432,-79.9349975586
71,YHU,Montréal / Saint-Hubert Airport,CYHU,Montreal,Canada,45.5175018311,-73.4169006348
72,YHY,Hay River / Merlyn Carter Airport,CYHY,Hay River,Canada,60.8396987915,-115.782997131
73,YHZ,Halifax / Stanfield International Airport,CYHZ,Halifax,Canada,44.8807983398,-63.5085983276
74,YIB,Atikokan Municipal Airport,CYIB,Atikokan,Canada,48.7738990784,-91.6386032104
75,YIO,Pond Inlet Airport,CYIO,Pond Inlet,Canada,72.6832962036,-77.9666976929
76,YJN,St Jean Airport,CYJN,St. Jean,Canada,45.2943992615,-73.2810974121
77,YJT,Stephenville Airport,CYJT,Stephenville,Canada,48.5442008972,-58.5499992371
78,YKA,Kamloops Airport,CYKA,Kamloops,Canada,50.7022018433,-120.444000244
79,YKF,Waterloo Airport,CYKF,Waterloo,Canada,43.4608001709,-80.3786010742
80,YKL,Schefferville Airport,CYKL,Schefferville,Canada,54.8053016663,-66.8052978516
81,YKY,Kindersley Airport,CYKY,Kindersley,Canada,51.5175018311,-109.180999756
82,YKZ,Buttonville Municipal Airport,CYKZ,Toronto,Canada,43.8622016907,-79.3700027466
83,YLD,Chapleau Airport,CYLD,Chapleau,Canada,47.8199996948,-83.3467025757
84,YLJ,Meadow Lake Airport,CYLJ,Meadow Lake,Canada,54.1253013611,-108.5230026245
85,YLL,Lloydminster Airport,CYLL,Lloydminster,Canada,53.3092002869,-110.0729980469
86,YLT,Alert Airport,CYLT,Alert,Canada,82.5177993774,-62.2806015015
87,YLW,Kelowna International Airport,CYLW,Kelowna,Canada,49.9561004639,-119.377998352
88,YMA,Mayo Airport,CYMA,Mayo,Canada,63.6164016724,-135.8679962158
89,YMJ,Moose Jaw Air Vice Marshal C. M. McEwen Airport,CYMJ,Moose Jaw,Canada,50.3302993774,-105.5589981079
90,YMM,Fort McMurray Airport,CYMM,Fort Mcmurray,Canada,56.653301239,-111.222000122
91,YMO,Moosonee Airport,CYMO,Moosonee,Canada,51.2910995483,-80.6078033447
92,YMW,Maniwaki Airport,CYMW,Maniwaki,Canada,46.2728004456,-75.9906005859
93,YMX,Montreal International (Mirabel) Airport,CYMX,Montreal,Canada,45.679501,-74.038696
94,YNA,Natashquan Airport,CYNA,Natashquan,Canada,50.1899986267,-61.7891998291
95,YND,Ottawa / Gatineau Airport,CYND,Gatineau,Canada,45.5217018127,-75.5635986328
96,YNM,Matagami Airport,CYNM,Matagami,Canada,49.7616996765,-77.8028030396
97,YOC,Old Crow Airport,CYOC,Old Crow,Canada,67.570602417,-139.8390045166
98,YOD,CFB Cold Lake,CYOD,Cold Lake,Canada,54.4049987793,-110.2789993286
99,YOJ,High Level Airport,CYOJ,High Level,Canada,58.6213989258,-117.1650009155
100,YOW,Ottawa Macdonald-Cartier International Airport,CYOW,Ottawa,Canada,45.3224983215,-75.6691970825
101,YPA,Prince Albert Glass Field,CYPA,Prince Albert,Canada,53.2141990662,-105.672996521
102,YPE,Peace River Airport,CYPE,Peace River,Canada,56.226898,-117.446999
103,YPG,Southport Airport,CYPG,Portage-la-prairie,Canada,49.903099,-98.273817
104,,Pitt Meadows Airport,CYPK,Pitt Meadows,Canada,49.2160987854,-122.7099990845
105,YPL,Pickle Lake Airport,CYPL,Pickle Lake,Canada,51.4463996887,-90.2142028809
106,YPN,Port Menier Airport,CYPN,Port Menier,Canada,49.8363990784,-64.2885971069
107,YPQ,Peterborough Airport,CYPQ,Peterborough,Canada,44.2299995422,-78.3632965088
108,YPR,Prince Rupert Airport,CYPR,Prince Pupert,Canada,54.2860984802,-130.445007324
109,YPY,Fort Chipewyan Airport,CYPY,Fort Chipewyan,Canada,58.76720047,-111.1169967651
110,YQA,Muskoka Airport,CYQA,Muskoka,Canada,44.9747009277,-79.3032989502
111,YQB,Quebec Jean Lesage International Airport,CYQB,Quebec,Canada,46.7911,-71.393303
112,YQF,Red Deer Regional Airport,CYQF,Red Deer Industrial,Canada,52.1822013855,-113.8939971924
113,YQG,Windsor Airport,CYQG,Windsor,Canada,42.2756004333,-82.9555969238
114,YQH,Watson Lake Airport,CYQH,Watson Lake,Canada,60.1164016724,-128.8220062256
115,YQK,Kenora Airport,CYQK,Kenora,Canada,49.7882995605,-94.3630981445
116,YQL,Lethbridge County Airport,CYQL,Lethbridge,Canada,49.6302986145,-112.800003052
117,YQM,Greater Moncton International Airport,CYQM,Moncton,Canada,46.1122016907,-64.6785964966
119,YQQ,Comox Airport,CYQQ,Comox,Canada,49.7108001709,-124.8870010376
120,YQR,Regina International Airport,CYQR,Regina,Canada,50.4319000244,-104.6660003662
121,YQT,Thunder Bay Airport,CYQT,Thunder Bay,Canada,48.3718986511,-89.3238983154
122,YQU,Grande Prairie Airport,CYQU,Grande Prairie,Canada,55.1796989441,-118.885002136
123,YQV,Yorkton Municipal Airport,CYQV,Yorkton,Canada,51.2647018433,-102.4619979858
124,YQW,North Battleford Airport,CYQW,North Battleford,Canada,52.7691993713,-108.2440032959
125,YQX,Gander International Airport,CYQX,Gander,Canada,48.9369010925,-54.5680999756
126,YQY,Sydney / J.A. Douglas McCurdy Airport,CYQY,Sydney,Canada,46.1614,-60.047798
127,YQZ,Quesnel Airport,CYQZ,Quesnel,Canada,53.0261001587,-122.5100021362
128,YRB,Resolute Bay Airport,CYRB,Resolute,Canada,74.7169036865,-94.9693984985
129,YRI,Rivière-du-Loup Airport,CYRI,Riviere Du Loup,Canada,47.7644004822,-69.5847015381
130,YRJ,Roberval Airport,CYRJ,Roberval,Canada,48.5200004578,-72.2656021118
131,YRM,Rocky Mountain House Airport,CYRM,Rocky Mountain House,Canada,52.4296989441,-114.903999329
132,YRT,Rankin Inlet Airport,CYRT,Rankin Inlet,Canada,62.8114013672,-92.1157989502
133,YSB,Sudbury Airport,CYSB,Sudbury,Canada,46.625,-80.7988967896
134,YSC,Sherbrooke Airport,CYSC,Sherbrooke,Canada,45.4385986328,-71.6913986206
135,YSJ,Saint John Airport,CYSJ,St. John,Canada,45.3161010742,-65.890296936
136,YSM,Fort Smith Airport,CYSM,Fort Smith,Canada,60.0203018188,-111.9619979858
137,YSR,Nanisivik Airport,CYSR,Nanisivik,Canada,72.982201,-84.613602
138,YSU,Summerside Airport,CYSU,Summerside,Canada,46.4406013489,-63.8335990906
139,YSY,Sachs Harbour (David Nasogaluak Jr. Saaryuaq) Airport,CYSY,Sachs Harbour,Canada,71.9938964844,-125.242996216
140,YTE,Cape Dorset Airport,CYTE,Cape Dorset,Canada,64.2300033569,-76.5267028809
141,YTH,Thompson Airport,CYTH,Thompson,Canada,55.8011016846,-97.8641967773
142,YTR,CFB Trenton,CYTR,Trenton,Canada,44.1189002991,-77.5280990601
143,YTS,Timmins/Victor M. Power,CYTS,Timmins,Canada,48.5696983337,-81.376701355
144,YTZ,Billy Bishop Toronto City Centre Airport,CYTZ,Toronto,Canada,43.627499,-79.396202
145,YUB,Tuktoyaktuk Airport,CYUB,Tuktoyaktuk,Canada,69.4332962036,-133.0260009766
146,YUL,Montreal / Pierre Elliott Trudeau International Airport,CYUL,Montreal,Canada,45.4706001282,-73.7407989502
147,YUT,Repulse Bay Airport,CYUT,Repulse Bay,Canada,66.5214004517,-86.2247009277
148,YUX,Hall Beach Airport,CYUX,Hall Beach,Canada,68.7761001587,-81.2425
149,YUY,Rouyn Noranda Airport,CYUY,Rouyn,Canada,48.2061004639,-78.8356018066
150,YVC,La Ronge Airport,CYVC,La Ronge,Canada,55.1514015198,-105.262001038
151,YVG,Vermilion Airport,CYVG,Vermillion,Canada,53.3558006287,-110.823997498
152,YVM,Qikiqtarjuaq Airport,CYVM,Broughton Island,Canada,67.5457992554,-64.0314025879
153,YVO,Val-d'Or Airport,CYVO,Val D'or,Canada,48.0532989502,-77.7827987671
154,YVP,Kuujjuaq Airport,CYVP,Quujjuaq,Canada,58.0960998535,-68.426902771
155,YVQ,Norman Wells Airport,CYVQ,Norman Wells,Canada,65.2816009521,-126.797996521
156,YVR,Vancouver International Airport,CYVR,Vancouver,Canada,49.193901062,-123.183998108
157,YVT,Buffalo Narrows Airport,CYVT,Buffalo Narrows,Canada,55.8418998718,-108.417999268
158,YVV,Wiarton Airport,CYVV,Wiarton,Canada,44.7458,-81.107201
159,YWA,Petawawa Airport,CYWA,Petawawa,Canada,45.9522018433,-77.3191986084
160,YWG,Winnipeg / James Armstrong Richardson International Airport,CYWG,Winnipeg,Canada,49.9099998474,-97.2398986816
161,YWK,Wabush Airport,CYWK,Wabush,Canada,52.9219017029,-66.864402771
162,YWL,Williams Lake Airport,CYWL,Williams Lake,Canada,52.1831016541,-122.054000854
163,YWY,Wrigley Airport,CYWY,Wrigley,Canada,63.209400177,-123.43699646
164,YXC,Cranbrook/Canadian Rockies International Airport,CYXC,Cranbrook,Canada,49.6108016968,-115.7819976807
165,YXD,Edmonton City Centre (Blatchford Field) Airport,CYXD,Edmonton,Canada,53.5724983215,-113.521003723
166,YXE,Saskatoon John G. Diefenbaker International Airport,CYXE,Saskatoon,Canada,52.1707992554,-106.6999969482
167,YXH,Medicine Hat Airport,CYXH,Medicine Hat,Canada,50.018901825,-110.7210006714
168,YXJ,Fort St John Airport,CYXJ,Fort Saint John,Canada,56.2380981445,-120.7399978638
169,YXL,Sioux Lookout Airport,CYXL,Sioux Lookout,Canada,50.113899231,-91.9052963257
170,YXP,Pangnirtung Airport,CYXP,Pangnirtung,Canada,66.1449966431,-65.7136001587
171,YXR,Earlton (Timiskaming Regional) Airport,CYXR,Earlton,Canada,47.6974006546,-79.8473453522
172,YXS,Prince George Airport,CYXS,Prince George,Canada,53.8894004822,-122.679000854
173,YXT,Northwest Regional Airport Terrace-Kitimat,CYXT,Terrace,Canada,54.468498,-128.576009
174,YXU,London Airport,CYXU,London,Canada,43.035599,-81.1539
175,YXX,Abbotsford Airport,CYXX,Abbotsford,Canada,49.0252990723,-122.361000061
176,YXY,Whitehorse / Erik Nielsen International Airport,CYXY,Whitehorse,Canada,60.7095985413,-135.067001343
177,YYB,North Bay Jack Garland Airport,CYYB,North Bay,Canada,46.363602,-79.422798
178,YYC,Calgary International Airport,CYYC,Calgary,Canada,51.113899231,-114.019996643
179,YYD,Smithers Airport,CYYD,Smithers,Canada,54.8246994019,-127.1829986572
180,YYE,Fort Nelson Airport,CYYE,Fort Nelson,Canada,58.8363990784,-122.597000122
181,YYF,Penticton Airport,CYYF,Penticton,Canada,49.4631004333,-119.6019973755
182,YYG,Charlottetown Airport,CYYG,Charlottetown,Canada,46.2900009155,-63.1211013794
183,YYH,Taloyoak Airport,CYYH,Spence Bay,Canada,69.5466995239,-93.5766983032
184,YYJ,Victoria International Airport,CYYJ,Victoria,Canada,48.646900177,-123.426002502
185,YYL,Lynn Lake Airport,CYYL,Lynn Lake,Canada,56.863899231,-101.0759963989
186,YYN,Swift Current Airport,CYYN,Swift Current,Canada,50.2919006348,-107.691001892
187,YYQ,Churchill Airport,CYYQ,Churchill,Canada,58.739200592,-94.0650024414
188,YYR,Goose Bay Airport,CYYR,Goose Bay,Canada,53.3191986084,-60.4258003235
189,YYT,St. John's International Airport,CYYT,St. John's,Canada,47.618598938,-52.7518997192
190,YYU,Kapuskasing Airport,CYYU,Kapuskasing,Canada,49.413898468,-82.4674987793
191,YYW,Armstrong Airport,CYYW,Armstrong,Canada,50.2902984619,-88.9096984863
192,YYY,Mont Joli Airport,CYYY,Mont Joli,Canada,48.6086006165,-68.2080993652
193,YYZ,Lester B. Pearson International Airport,CYYZ,Toronto,Canada,43.6772003174,-79.6305999756
194,YZD,Downsview Airport,CYZD,Toronto,Canada,43.7425003052,-79.4655990601
195,YZE,Gore Bay Manitoulin Airport,CYZE,Gore Bay,Canada,45.8852996826,-82.5678024292
196,YZF,Yellowknife Airport,CYZF,Yellowknife,Canada,62.4627990723,-114.4400024414
197,YZH,Slave Lake Airport,CYZH,Slave Lake,Canada,55.2930984497,-114.777000427
198,YZP,Sandspit Airport,CYZP,Sandspit,Canada,53.2542991638,-131.813995361
199,YZR,Chris Hadfield Airport,CYZR,Sarnia,Canada,42.9994010925,-82.3088989258
200,YZT,Port Hardy Airport,CYZT,Port Hardy,Canada,50.6805992126,-127.3669967651
201,YZU,Whitecourt Airport,CYZU,Whitecourt,Canada,54.143901825,-115.7870025635
202,YZV,Sept-Îles Airport,CYZV,Sept-iles,Canada,50.2233009338,-66.2656021118
203,YZW,Teslin Airport,CYZW,Teslin,Canada,60.1727981567,-132.7429962158
204,YZX,CFB Greenwood,CYZX,Greenwood,Canada,44.9844017029,-64.9169006348
205,ZFA,Faro Airport,CZFA,Faro,Canada,62.2075004578,-133.3760070801
206,ZFM,Fort Mcpherson Airport,CZFM,Fort Mcpherson,Canada,67.4075012207,-134.8609924316
207,QLD,Blida Airport,DAAB,Blida,Algeria,36.5036010742,2.8141698837
208,BUJ,Bou Saada Airport,DAAD,Bou Saada,Algeria,35.3325004578,4.206389904
209,BJA,Soummam Airport,DAAE,Bejaja,Algeria,36.7120018005,5.069920063
210,ALG,Houari Boumediene Airport,DAAG,Algier,Algeria,36.6910018921,3.2154099941
211,DJG,Djanet Inedbirene Airport,DAAJ,Djanet,Algeria,24.292801,9.45244
212,,Boufarik Airport,DAAK,Boufarik,Algeria,36.545799,2.87611
213,,Reggane Airport,DAAN,Reggan,Algeria,26.7101,0.285647
214,VVZ,Illizi Takhamalt Airport,DAAP,Illizi,Algeria,26.7234992981,8.6226501465
215,,Ain Oussera Airport,DAAQ,Ain Oussera,Algeria,35.5253982544,2.8787100315
216,TMR,Aguenar – Hadj Bey Akhamok Airport,DAAT,Tamanrasset,Algeria,22.8115005493,5.4510798454
217,GJL,Jijel Ferhat Abbas Airport,DAAV,Jijel,Algeria,36.7951011658,5.8736100197
218,MZW,Mecheria Airport,DAAY,Mecheria,Algeria,33.535900116,-0.2423530072
219,,Relizane Airport,DAAZ,Relizane,Algeria,35.752201,0.626272
220,AAE,Rabah Bitat Airport,DABB,Annaba,Algeria,36.822201,7.809174
221,CZL,Mohamed Boudiaf International Airport,DABC,Constantine,Algeria,36.2760009766,6.6203899384
222,TEE,Cheikh Larbi Tébessi Airport,DABS,Tebessa,Algeria,35.4315986633,8.1207199097
224,HRM,Hassi R'Mel Airport,DAFH,Tilrempt,Algeria,32.9304008484,3.3115398884
225,TID,Bou Chekif Airport,DAOB,Tiaret,Algeria,35.3410987854,1.4631500244
226,,Bou Sfer Airport,DAOE,Bou Sfer,Algeria,35.7354011536,-0.8053889871
227,TIN,Tindouf Airport,DAOF,Tindouf,Algeria,27.7003993988,-8.1670999527
228,CFK,Ech Cheliff Airport,DAOI,Ech-cheliff,Algeria,36.2126998901,1.3317699432
229,TAF,Tafaraoui Airport,DAOL,Oran,Algeria,35.5424003601,-0.5322780013
230,TLM,Zenata – Messali El Hadj Airport,DAON,Tlemcen,Algeria,35.0167007446,-1.4500000477
231,ORN,Es Senia Airport,DAOO,Oran,Algeria,35.6239013672,-0.6211829782
232,BFW,Sidi Bel Abbes Airport,DAOS,Sidi Bel Abbes,Algeria,35.1717987061,-0.5932750106
233,MUW,Ghriss Airport,DAOV,Ghriss,Algeria,35.207698822,0.147141993
234,AZR,Touat Cheikh Sidi Mohamed Belkebir Airport,DAUA,Adrar,Algeria,27.837600708,-0.1864140034
235,BSK,Biskra Airport,DAUB,Biskra,Algeria,34.7933006287,5.7382302284
236,ELG,El Golea Airport,DAUE,El Golea,Algeria,30.5713005066,2.8595900536
237,GHA,Noumérat - Moufdi Zakaria Airport,DAUG,Ghardaia,Algeria,32.3841018677,3.7941100597
238,HME,Oued Irara Airport,DAUH,Hassi Messaoud,Algeria,31.6730003357,6.1404399872
239,INZ,In Salah Airport,DAUI,In Salah,Algeria,27.2509994507,2.5120201111
240,TGR,Touggourt Sidi Madhi Airport,DAUK,Touggourt,Algeria,33.0677986145,6.0886697769
241,LOO,Laghouat Airport,DAUL,Laghouat,Algeria,33.7644004822,2.9283399582
242,TMX,Timimoun Airport,DAUT,Timimoun,Algeria,29.2371006012,0.2760330141
243,OGX,Ain el Beida Airport,DAUU,Ouargla,Algeria,31.9172000885,5.412779808
244,IAM,In Aménas Airport,DAUZ,Zarzaitine,Algeria,28.0515,9.64291
245,COO,Cadjehoun Airport,DBBB,Cotonou,Benin,6.3572301865,2.3843500614
246,OUA,Ouagadougou Airport,DFFD,Ouagadougou,Burkina Faso,12.3532,-1.51242
247,BOY,Bobo Dioulasso Airport,DFOO,Bobo-dioulasso,Burkina Faso,11.1600999832,-4.3309698105
248,ACC,Kotoka International Airport,DGAA,Accra,Ghana,5.6051898003,-0.1667860001
249,TML,Tamale Airport,DGLE,Tamale,Ghana,9.5571899414,-0.863214016
250,,Wa Airport,DGLW,Wa,Ghana,10.0826997757,-2.5076899529
251,NYI,Sunyani Airport,DGSN,Sunyani,Ghana,7.3618302345,-2.3287599087
252,TKD,Takoradi Airport,DGTK,Takoradi,Ghana,4.8960599899,-1.7747600079
253,ABJ,Port Bouet Airport,DIAP,Abidjan,Cote d'Ivoire,5.2613902092,-3.9262900352
254,BYK,Bouaké Airport,DIBK,Bouake,Cote d'Ivoire,7.7388000488,-5.0736699104
255,DJO,Daloa Airport,DIDL,Daloa,Cote d'Ivoire,6.7928099632,-6.4731898308
256,HGO,Korhogo Airport,DIKO,Korhogo,Cote d'Ivoire,9.3871803284,-5.5566601753
257,MJC,Man Airport,DIMN,Man,Cote d'Ivoire,7.272069931,-7.5873599052
258,SPY,San Pedro Airport,DISP,San Pedro,Cote d'Ivoire,4.7467198372,-6.6608200073
259,ASK,Yamoussoukro Airport,DIYO,Yamoussoukro,Cote d'Ivoire,6.9031701088,-5.3655800819
260,ABV,Nnamdi Azikiwe International Airport,DNAA,Abuja,Nigeria,9.0067901611,7.2631697655
261,AKR,Akure Airport,DNAK,Akure,Nigeria,7.2467398643,5.3010101318
262,BNI,Benin Airport,DNBE,Benin,Nigeria,6.3169798851,5.5995001793
263,CBQ,Margaret Ekpo International Airport,DNCA,Calabar,Nigeria,4.9760198593,8.3472003937
264,ENU,Akanu Ibiam International Airport,DNEN,Enugu,Nigeria,6.4742698669,7.5619602203
265,,Gusau Airport,DNGU,Gusau,Nigeria,12.1717,6.69611
266,IBA,Ibadan Airport,DNIB,Ibadan,Nigeria,7.3624601364,3.9783298969
267,ILR,Ilorin International Airport,DNIL,Ilorin,Nigeria,8.4402103424,4.4939198494
268,JOS,Yakubu Gowon Airport,DNJO,Jos,Nigeria,9.6398296356,8.8690500259
269,KAD,Kaduna Airport,DNKA,Kaduna,Nigeria,10.6960000992,7.3201098442
270,KAN,Mallam Aminu International Airport,DNKN,Kano,Nigeria,12.0476,8.52462
271,MIU,Maiduguri International Airport,DNMA,Maiduguri,Nigeria,11.8552999496,13.0809001923
272,MDI,Makurdi Airport,DNMK,Makurdi,Nigeria,7.70388,8.61394
273,LOS,Murtala Muhammed International Airport,DNMM,Lagos,Nigeria,6.5773701668,3.321160078
274,MXJ,Minna Airport,DNMN,Minna,Nigeria,9.6521701813,6.4622597694
275,PHC,Port Harcourt International Airport,DNPO,Port Hartcourt,Nigeria,5.0154900551,6.9495902061
276,SKO,Sadiq Abubakar III International Airport,DNSO,Sokoto,Nigeria,12.9162998199,5.2071900368
277,YOL,Yola Airport,DNYO,Yola,Nigeria,9.2575502396,12.4303998947
278,ZAR,Zaria Airport,DNZA,Zaria,Nigeria,11.1302,7.68581
279,MFQ,Maradi Airport,DRRM,Maradi,Niger,13.5024995804,7.1267499924
280,NIM,Diori Hamani International Airport,DRRN,Niamey,Niger,13.4815,2.18361
281,THZ,Tahoua Airport,DRRT,Tahoua,Niger,14.8756999969,5.2653598785
282,AJY,Mano Dayak International Airport,DRZA,Agadez,Niger,16.9659996033,8.0001096725
283,,Dirkou Airport,DRZD,Dirkou,Niger,18.9687004089,12.8687000275
284,,Diffa Airport,DRZF,Diffa,Niger,13.3729000092,12.6267004013
285,ZND,Zinder Airport,DRZR,Zinder,Niger,13.7790002823,8.9837598801
286,MIR,Monastir Habib Bourguiba International Airport,DTMB,Monastir,Tunisia,35.7580986023,10.754699707
287,TUN,Tunis Carthage International Airport,DTTA,Tunis,Tunisia,36.8510017395,10.2271995544
288,,Sidi Ahmed Air Base,DTTB,Bizerte,Tunisia,37.245398,9.79145
289,,Remada Air Base,DTTD,Remada,Tunisia,32.3061981201,10.3821001053
290,GAF,Gafsa Ksar International Airport,DTTF,Gafsa,Tunisia,34.422000885,8.8225002289
291,GAE,Gabès Matmata International Airport,DTTG,Gabes,Tunisia,33.8768997192,10.1033000946
292,,Borj El Amri Airport,DTTI,Bordj El Amri,Tunisia,36.7212982178,9.9431495667
293,DJE,Djerba Zarzis International Airport,DTTJ,Djerba,Tunisia,33.875,10.7755002975
294,EBM,El Borma Airport,DTTR,El Borma,Tunisia,31.7042999268,9.2546195984
295,SFA,Sfax Thyna International Airport,DTTX,Sfax,Tunisia,34.7179985046,10.6909999847
296,TOE,Tozeur Nefta International Airport,DTTZ,Tozeur,Tunisia,33.9397010803,8.1105604172
297,LRL,Niamtougou International Airport,DXNG,Niatougou,Togo,9.7673301697,1.0912499428
298,LFW,Lomé-Tokoin Airport,DXXX,Lome,Togo,6.1656098366,1.2545100451
299,ANR,Antwerp International Airport (Deurne),EBAW,Antwerp,Belgium,51.1893997192,4.4602799416
300,,Beauvechain Air Base,EBBE,Beauvechain,Belgium,50.7585983276,4.7683300972
301,,Kleine Brogel Air Base,EBBL,Kleine Brogel,Belgium,51.168301,5.47
302,BRU,Brussels Airport,EBBR,Brussels,Belgium,50.9014015198,4.4844398499
303,,Jehonville Air Base,EBBX,Bertrix,Belgium,49.8917007446,5.2238898277
304,CRL,Brussels South Charleroi Airport,EBCI,Charleroi,Belgium,50.459202,4.45382
305,,Chièvres Air Base,EBCV,Chievres,Belgium,50.5758018494,3.8310000896
306,,Koksijde Air Base,EBFN,Koksijde,Belgium,51.0903015137,2.652780056
307,,Florennes Air Base,EBFS,Florennes,Belgium,50.2433013916,4.6458301544
308,KJK,Wevelgem Airport,EBKT,Kortrijk-vevelgem,Belgium,50.817199707,3.2047200203
309,LGG,Liège Airport,EBLG,Liege,Belgium,50.6374015808,5.4432201385
310,OST,Ostend-Bruges International Airport,EBOS,Ostend,Belgium,51.1988983154,2.8622200489
311,,Zutendaal Air Base,EBSL,Zutendaal,Belgium,50.9474983215,5.5905599594
312,,Brustem Airfield Sint Truiden,EBST,Sint-truiden,Belgium,50.791901,5.20167
313,,Saint Hubert Air Base,EBSU,St.-hubert,Belgium,50.0344009399,5.4408102036
314,,Ursel Air Base,EBUL,Ursel,Belgium,51.1441993713,3.4755599499
315,,Weelde Air Base,EBWE,Weelde,Belgium,51.3947982788,4.9601898193
316,OBL,Zoersel (Oostmalle) Airfield,EBZR,Zoersel,Belgium,51.264702,4.75333
317,,Flugplatz Bautzen,EDAB,Bautzen,Germany,51.193611,14.519722
318,AOC,Altenburg-Nobitz Airport,EDAC,Altenburg,Germany,50.981945,12.506389
319,,Dessau Airfield,EDAD,Dessau,Germany,51.831694,12.190962
320,,Eisenhüttenstadt Airfield,EDAE,Eisenhuettenstadt,Germany,52.195856,14.58753
322,,Großenhain Airport,EDAK,Suhl,Germany,51.3080558777,13.5555562973
323,,Merseburg Airport,EDAM,Muehlhausen,Germany,51.3630556,11.9408333
324,,Halle-Oppin Airport,EDAQ,Halle,Germany,51.552223,12.053889
325,IES,Riesa-Göhlis Airport,EDAU,Riesa,Germany,51.2936096191,13.3561105728
326,REB,Rechlin-Lärz Airport,EDAX,Rechlin-laerz,Germany,53.306388855,12.7522220612
327,,Strausberg Airport,EDAY,Strausberg,Germany,52.5805549622,13.9166669846
328,QXH,Schönhagen Airport,EDAZ,Schoenhagen,Germany,52.203609,13.156389
329,BBH,Barth Airport,EDBH,Barth,Germany,54.338253,12.710515
330,,Jena-Schöngleina Airfield,EDBJ,Jena,Germany,50.915279,11.714444
331,,Kyritz Airport,EDBK,Kyritz,Germany,52.918888092,12.42527771
332,ZMG,"Magdeburg ""City"" Airport",EDBM,Magdeburg,Germany,52.073612,11.626389
333,,Rothenburg/Görlitz Airport,EDBR,Rothenburg/ol,Germany,51.3633346558,14.9499998093
334,,Anklam Airfield,EDCA,Anklam,Germany,53.832779,13.668611
335,CBU,Cottbus-Drewitz Airport,EDCD,Cottbus,Germany,51.889442,14.531944
336,,Kamenz Airport,EDCM,Kamenz,Germany,51.2969436646,14.1274995804
337,SXF,Berlin-Schönefeld Airport,EDDB,Berlin,Germany,52.380001,13.5225
338,DRS,Dresden Airport,EDDC,Dresden,Germany,51.1328010559,13.76720047
339,ERF,Erfurt Airport,EDDE,Erfurt,Germany,50.979801178,10.9581003189
340,FRA,Frankfurt am Main Airport,EDDF,Frankfurt,Germany,50.033333,8.570556
341,FMO,Münster Osnabrück Airport,EDDG,Munster,Germany,52.134601593,7.6848301888
342,HAM,Hamburg Airport,EDDH,Hamburg,Germany,53.6304016113,9.9882297516
343,THF,Berlin-Tempelhof International Airport,EDDI,Berlin,Germany,52.4729995728,13.4039001465
344,CGN,Cologne Bonn Airport,EDDK,Cologne,Germany,50.8658981323,7.1427397728
345,DUS,Düsseldorf Airport,EDDL,Duesseldorf,Germany,51.289501,6.76678
346,MUC,Munich Airport,EDDM,Munich,Germany,48.353802,11.7861
347,NUE,Nuremberg Airport,EDDN,Nuernberg,Germany,49.498699,11.078056
348,LEJ,Leipzig/Halle Airport,EDDP,Leipzig,Germany,51.423889,12.236389
349,SCN,Saarbrücken Airport,EDDR,Saarbruecken,Germany,49.2145996094,7.1095099449
350,STR,Stuttgart Airport,EDDS,Stuttgart,Germany,48.6898994446,9.2219600678
351,TXL,Berlin-Tegel Airport,EDDT,Berlin,Germany,52.5597,13.2877
352,HAJ,Hannover Airport,EDDV,Hannover,Germany,52.461101532,9.6850795746
353,BRE,Bremen Airport,EDDW,Bremen,Germany,53.0475006104,8.7866697311
354,QEF,Frankfurt-Egelsbach Airport,EDFE,Egelsbach,Germany,49.959999,8.645833
355,HHN,Frankfurt-Hahn Airport,EDFH,Hahn,Germany,49.9487,7.26389
356,MHG,Mannheim-City Airport,EDFM,Mannheim,Germany,49.473057,8.514167
357,,Allendorf/Eder Airport,EDFQ,Allendorf,Germany,51.0349998474,8.6808328629
358,,Worms Airport,EDFV,Worms,Germany,49.606945,8.368333
359,,Mainz-Finthen Airport,EDFZ,Mainz,Germany,49.967499,8.147222
360,EIB,Eisenach-Kindel Airport,EDGE,Eisenach,Germany,50.991604,10.47973
361,SGE,Siegerland Airport,EDGS,Siegerland,Germany,50.707698822,8.0829696655
362,XFW,Hamburg-Finkenwerder Airport,EDHI,Hamburg,Germany,53.5352783203,9.8355560303
363,KEL,Kiel-Holtenau Airport,EDHK,Kiel,Germany,54.3794441223,10.145277977
364,LBC,Lübeck Blankensee Airport,EDHL,Luebeck,Germany,53.8054008484,10.7192001343
365,,Flugplatz Dahlemer Binz,EDKV,Dahlemer Binz,Germany,50.405555725,6.5288891792
366,,Meinerzhagen Airport,EDKZ,Meinerzhagen,Germany,51.0999984741,7.5999999046
367,,Arnsberg-Menden Airport,EDLA,Arnsberg,Germany,51.4838905334,7.8983330727
368,ESS,Essen Mulheim Airport,EDLE,Essen,Germany,51.4023017883,6.9373297691
369,BFE,Bielefeld Airport,EDLI,Bielefeld,Germany,51.964722,8.544444
370,MGL,Mönchengladbach Airport,EDLN,Moenchengladbach,Germany,51.230278,6.504444
371,PAD,Paderborn Lippstadt Airport,EDLP,Paderborn,Germany,51.6141014099,8.6163196564
372,,Stadtlohn-Vreden Airport,EDLS,Stadtlohn,Germany,51.9958343506,6.8405561447
373,DTM,Dortmund Airport,EDLW,Dortmund,Germany,51.5182991028,7.6122398377
374,AGB,Augsburg Airport,EDMA,Augsburg,Germany,48.425278,10.931667
375,,Biberach a.d. Riß Airfield,EDMB,Biberach,Germany,48.111111,9.762778
376,,Eggenfelden Airport,EDME,Eggenfelden,Germany,48.3961105347,12.723610878
377,,Mindelheim-Mattsies Airfield,EDMN,Mindelheim,Germany,48.106945,10.525
378,OBF,Oberpfaffenhofen Airport,EDMO,Oberpfaffenhofen,Germany,48.081402,11.2831
379,RBM,Straubing Airport,EDMS,Straubing,Germany,48.9008331299,12.516667366
380,,Vilshofen Airport,EDMV,Vilshofen,Germany,48.6349983215,13.195555687
381,,Leutkirch-Unterzeil Airport,EDNL,Leutkirch,Germany,47.8588905334,10.014166832
382,FDH,Friedrichshafen Airport,EDNY,Friedrichshafen,Germany,47.6712989807,9.5114898682
383,SZW,Schwerin Parchim Airport,EDOP,Parchim,Germany,53.426998,11.7834
384,,Stendal-Borstel Airport,EDOV,Stendal,Germany,52.6288871765,11.818611145
385,,Aalen-Heidenheim/Elchingen Airport,EDPA,Aalen-heidenheim,Germany,48.7777786255,10.2647218704
386,BYU,Bayreuth Airport,EDQD,Bayreuth,Germany,49.985001,11.64
387,URD,Burg Feuerstein Airport,EDQE,Burg Feuerstein,Germany,49.7941665649,11.1336107254
388,HOQ,Hof-Plauen Airport,EDQM,Hof,Germany,50.2886123657,11.8563890457
389,,Haßfurt-Schweinfurt Airport,EDQT,Hassfurt,Germany,50.0180549622,10.5294437408
390,,Koblenz-Winningen Airfield,EDRK,Koblenz,Germany,50.325558,7.528611
391,,Trier-Föhren Airport,EDRT,Trier,Germany,49.863888,6.7875
392,,Speyer Airfield,EDRY,Speyer,Germany,49.304722,8.451389
393,ZQW,Zweibrücken Airport,EDRZ,Zweibruecken,Germany,49.2094,7.40056
394,ZQL,Donaueschingen-Villingen Airport,EDTD,Donaueschingen,Germany,47.9733314514,8.5222215653
395,,Freiburg i. Br. Airport,EDTF,Freiburg,Germany,48.0227775574,7.8324999809
396,,Mengen-Hohentengen Airport,EDTM,Mengen,Germany,48.0538902283,9.3727779388
397,,Adolf Würth Airport,EDTY,Schwaebisch Hall,Germany,49.1183319092,9.7838888168
398,,Finsterwalde/Schacksdorf Airport,EDUS,Soest,Germany,51.607498,13.743611
399,BWE,Braunschweig-Wolfsburg Airport,EDVE,Braunschweig,Germany,52.319199,10.5561
400,KSF,Kassel-Calden Airport,EDVK,Kassel,Germany,51.417273,9.384967
401,,Hildesheim Airport,EDVM,Hildesheim,Germany,52.181388855,9.9463891983
402,BRV,Bremerhaven Airport,EDWB,Bremerhaven,Germany,53.506943,8.572778
403,EME,Emden Airport,EDWE,Emden,Germany,53.391109,7.2275
404,,Leer-Papenburg Airport,EDWF,Leer,Germany,53.2719421387,7.4416670799
405,WVN,Wilhelmshaven-Mariensiel Airport,EDWI,Wilhelmshaven,Germany,53.5022201538,8.0522222519
406,BMK,Borkum Airport,EDWR,Borkum,Germany,53.59639,6.709167
407,NRD,Norderney Airport,EDWY,Norderney,Germany,53.706943512,7.2300000191
408,FLF,Flensburg-Schäferhaus Airport,EDXF,Flensburg,Germany,54.7733345032,9.3788890839
409,,Rendsburg-Schachtholm Airport,EDXR,Rendsburg,Germany,54.2200012207,9.5994443893
410,GWT,Westerland Sylt Airport,EDXW,Westerland,Germany,54.9132003784,8.340470314
411,,Ämari Air Base,EEEI,Armari Air Force Base,Estonia,59.2602996826,24.2084999084
412,KDL,Kärdla Airport,EEKA,Kardla,Estonia,58.9907989502,22.8306999207
413,URE,Kuressaare Airport,EEKE,Kuressaare,Estonia,58.2299003601,22.5095005035
414,EPU,Pärnu Airport,EEPU,Parnu,Estonia,58.4189987183,24.4727993011
415,TLL,Lennart Meri Tallinn Airport,EETN,Tallinn-ulemiste International,Estonia,59.4132995605,24.8327999115
416,TAY,Tartu Airport,EETU,Tartu,Estonia,58.3074989319,26.6903991699
417,ENF,Enontekio Airport,EFET,Enontekio,Finland,68.3626022339,23.4242992401
418,,Eura Airport,EFEU,Eura,Finland,61.1161003113,22.2014007568
419,KEV,Halli Airport,EFHA,Halli,Finland,61.856039,24.786686
420,HEM,Helsinki Malmi Airport,EFHF,Helsinki,Finland,60.2546005249,25.0428009033
421,HEL,Helsinki Vantaa Airport,EFHK,Helsinki,Finland,60.317199707,24.963300705
422,,Hameenkyro Airport,EFHM,Hameenkyro,Finland,61.6897010803,23.0736999512
423,,Hanko Airport,EFHN,Hanko,Finland,59.8488998413,23.0835990906
424,HYV,Hyvinkää Airfield,EFHV,Hyvinkaa,Finland,60.6543998718,24.8810997009
425,,Kiikala Airport,EFIK,Kikala,Finland,60.4625015259,23.6525001526
426,,Immola Airport,EFIM,Immola,Finland,61.2491989136,28.9036998749
427,KTQ,Kitee Airport,EFIT,Kitee,Finland,62.1661,30.073601
428,IVL,Ivalo Airport,EFIV,Ivalo,Finland,68.6072998047,27.4053001404
429,JOE,Joensuu Airport,EFJO,Joensuu,Finland,62.6628990173,29.6075000763
430,JYV,Jyvaskyla Airport,EFJY,Jyvaskyla,Finland,62.3995018005,25.6783008575
431,KAU,Kauhava Airport,EFKA,Kauhava,Finland,63.127102,23.051399
432,KEM,Kemi-Tornio Airport,EFKE,Kemi,Finland,65.7787017822,24.5820999146
433,KAJ,Kajaani Airport,EFKI,Kajaani,Finland,64.2854995728,27.6923999786
434,KHJ,Kauhajoki Airport,EFKJ,Kauhajoki,Finland,62.4625015259,22.3931007385
435,KOK,Kokkola-Pietarsaari Airport,EFKK,Kruunupyy,Finland,63.7211990356,23.1431007385
436,,Kemijarvi Airport,EFKM,Kemijarvi,Finland,66.712898,27.156799
437,KAO,Kuusamo Airport,EFKS,Kuusamo,Finland,65.9876022339,29.2394008636
438,KTT,Kittilä Airport,EFKT,Kittila,Finland,67.7009963989,24.8467998505
439,KUO,Kuopio Airport,EFKU,Kuopio,Finland,63.0070991516,27.7978000641
440,QLF,Lahti Vesivehmaa Airport,EFLA,Vesivehmaa,Finland,61.144199,25.693501
441,LPP,Lappeenranta Airport,EFLP,Lappeenranta,Finland,61.044601,28.144743
442,MHQ,Mariehamn Airport,EFMA,Mariehamn,Finland,60.1222000122,19.8981990814
443,,Menkijarvi Airport,EFME,Menkijarvi,Finland,62.9467010498,23.5188999176
444,MIK,Mikkeli Airport,EFMI,Mikkeli,Finland,61.6866,27.201799
445,,Nummela Airport,EFNU,Nummela,Finland,60.3339004517,24.2964000702
446,OUL,Oulu Airport,EFOU,Oulu,Finland,64.9300994873,25.3546009064
447,,Piikajarvi Airport,EFPI,Piikajarvi,Finland,61.2456016541,22.1933994293
448,POR,Pori Airport,EFPO,Pori,Finland,61.4617004395,21.7999992371
449,,Pudasjärvi Airport,EFPU,Pudasjarvi,Finland,65.4021987915,26.9468994141
450,,Pyhäsalmi Airport,EFPY,Pyhasalmi,Finland,63.7318992615,25.9263000488
451,,Raahe Pattijoki Airport,EFRH,Pattijoki,Finland,64.6881027222,24.6958007812
452,,Rantasalmi Airport,EFRN,Rantasalmi,Finland,62.0654983521,28.3565006256
453,RVN,Rovaniemi Airport,EFRO,Rovaniemi,Finland,66.5647964478,25.8304004669
454,,Rayskala Airport,EFRY,Rayskala,Finland,60.7447013855,24.10779953
455,SVL,Savonlinna Airport,EFSA,Savonlinna,Finland,61.9430999756,28.9451007843
456,,Selanpaa Airport,EFSE,Selanpaa,Finland,61.0624008179,26.7989006042
457,SOT,Sodankyla Airport,EFSO,Sodankyla,Finland,67.3949966431,26.6191005707
458,TMP,Tampere-Pirkkala Airport,EFTP,Tampere,Finland,61.414100647,23.6044006348
459,,Teisko Airport,EFTS,Teisko,Finland,61.7733,24.027
460,TKU,Turku Airport,EFTU,Turku,Finland,60.5140991211,22.2628002167
461,UTI,Utti Air Base,EFUT,Utti,Finland,60.8964004517,26.9384002686
462,VAA,Vaasa Airport,EFVA,Vaasa,Finland,63.0507011414,21.7621994019
463,VRK,Varkaus Airport,EFVR,Varkaus,Finland,62.1711006165,27.8686008453
464,YLI,Ylivieska Airfield,EFYL,Ylivieska-raudaskyla,Finland,64.0547222,24.7252778
465,BFS,Belfast International Airport,EGAA,Belfast,United Kingdom,54.6575012207,-6.2158298492
466,ENK,St Angelo Airport,EGAB,Enniskillen,United Kingdom,54.3988990784,-7.6516699791
467,BHD,George Best Belfast City Airport,EGAC,Belfast,United Kingdom,54.6180992126,-5.8724999428
468,LDY,City of Derry Airport,EGAE,Londonderry,United Kingdom,55.0428009033,-7.1611099243
469,BHX,Birmingham International Airport,EGBB,Birmingham,United Kingdom,52.4538993835,-1.7480299473
470,CVT,Coventry Airport,EGBE,Coventry,United Kingdom,52.3697013855,-1.4797199965
471,,Leicester Airport,EGBG,Leicester,United Kingdom,52.60779953,-1.0319399834
472,GLO,Gloucestershire Airport,EGBJ,Golouchestershire,United Kingdom,51.8941993713,-2.1672201157
474,,Wolverhampton Halfpenny Green Airport,EGBO,Halfpenny Green,United Kingdom,52.5175018311,-2.2594399452
475,GBA,Cotswold Airport,EGBP,Pailton,United Kingdom,51.668095,-2.05694
476,,Turweston Airport,EGBT,Turweston,United Kingdom,52.0407981873,-1.0955599546
477,,Wellesbourne Mountford Airport,EGBW,Wellesbourne,United Kingdom,52.192199707,-1.6144399643
478,MAN,Manchester Airport,EGCC,Manchester,United Kingdom,53.3536987305,-2.2749500275
479,,Manchester Woodford Airport,EGCD,Woodfort,United Kingdom,53.3381,-2.14889
480,,Royal Marines Base Chivenor Airport,EGDC,Chivenor,United Kingdom,51.0872001648,-4.1503400803
481,NQY,Newquay Cornwall Airport,EGHQ,Newquai,United Kingdom,50.4406013489,-4.9954099655
482,LYE,RAF Lyneham,EGDL,Lyneham,United Kingdom,51.5051,-1.99343
483,,MoD Boscombe Down Airport,EGDM,Boscombe Down,United Kingdom,51.1521987915,-1.747410059
484,,RNAS Culdrose,EGDR,Culdrose,United Kingdom,50.086101532,-5.255710125
485,,MoD St. Athan,EGDX,St. Athan,United Kingdom,51.4048,-3.43575
486,YEO,RNAS Yeovilton,EGDY,Yeovilton,United Kingdom,51.0093994141,-2.6388199329
487,HAW,Haverfordwest Airport,EGFE,Haverfordwest,United Kingdom,51.8330993652,-4.9611101151
488,CWL,Cardiff International Airport,EGFF,Cardiff,United Kingdom,51.3967018127,-3.3433299065
489,SWS,Swansea Airport,EGFH,Swansea,United Kingdom,51.6053009033,-4.0678300858
490,BRS,Bristol Airport,EGGD,Bristol,United Kingdom,51.382702,-2.71909
491,LPL,Liverpool John Lennon Airport,EGGP,Liverpool,United Kingdom,53.3335990906,-2.8497200012
492,LTN,London Luton Airport,EGGW,London,United Kingdom,51.8746986389,-0.3683330119
493,PLH,Plymouth City Airport,EGHD,Plymouth,United Kingdom,50.422798,-4.10583
494,BOH,Bournemouth Airport,EGHH,Bournemouth,United Kingdom,50.7799987793,-1.8424999714
495,SOU,Southampton Airport,EGHI,Southampton,United Kingdom,50.9502983093,-1.3567999601
496,QLA,Lasham Airport,EGHL,Lasham,United Kingdom,51.1871986389,-1.0334999561
497,ACI,Alderney Airport,EGJA,Alderney,Guernsey,49.706104,-2.21472
498,GCI,Guernsey Airport,EGJB,Guernsey,Guernsey,49.4350013733,-2.6019699574
499,JER,Jersey Airport,EGJJ,Jersey,Jersey,49.207901001,-2.1955099106
500,ESH,Shoreham Airport,EGKA,Shoreham By Sea,United Kingdom,50.835602,-0.297222
501,BQH,London Biggin Hill Airport,EGKB,Biggin Hill,United Kingdom,51.3307991028,0.0324999988
502,LGW,London Gatwick Airport,EGKK,London,United Kingdom,51.148102,-0.190278
503,LCY,London City Airport,EGLC,London,United Kingdom,51.505299,0.055278
504,FAB,Farnborough Airport,EGLF,Farnborough,United Kingdom,51.2757987976,-0.7763329744
505,,Chalgrove Airport,EGLJ,Chalsgrove,United Kingdom,51.6761016846,-1.080829978
506,BBS,Blackbushe Airport,EGLK,Blackbushe,United Kingdom,51.3238983154,-0.8475000262
507,LHR,London Heathrow Airport,EGLL,London,United Kingdom,51.4706,-0.461941
508,SEN,Southend Airport,EGMC,Southend,United Kingdom,51.5713996887,0.695555985
509,LYX,Lydd Airport,EGMD,Lydd,United Kingdom,50.9561004639,0.9391670227
510,MSE,Kent International Airport,EGMH,Manston,United Kingdom,51.342201,1.34611
511,,Brough Airport,EGNB,Brough,United Kingdom,53.7197,-0.566333
512,CAX,Carlisle Airport,EGNC,Carlisle,United Kingdom,54.9375,-2.8091700077
513,,Retford Gamston Airport,EGNE,Repton,United Kingdom,53.2806015015,-0.9513890147
514,BLK,Blackpool International Airport,EGNH,Blackpool,United Kingdom,53.7717018127,-3.0286099911
515,HUY,Humberside Airport,EGNJ,Humberside,United Kingdom,53.5744018555,-0.3508329988
516,BWF,Barrow Walney Island Airport,EGNL,Barrow Island,United Kingdom,54.1286111,-3.2675
517,LBA,Leeds Bradford Airport,EGNM,Leeds,United Kingdom,53.8658981323,-1.6605700254
518,WRT,Warton Airport,EGNO,Warton,United Kingdom,53.745098,-2.88306
519,CEG,Hawarden Airport,EGNR,Hawarden,United Kingdom,53.1781005859,-2.9777801037
520,IOM,Isle of Man Airport,EGNS,Isle Of Man,Isle of Man,54.0833015442,-4.6238899231
521,NCL,Newcastle Airport,EGNT,Newcastle,United Kingdom,55.0374984741,-1.6916699409
522,MME,Durham Tees Valley Airport,EGNV,Teesside,United Kingdom,54.5092010498,-1.4294099808
523,EMA,East Midlands Airport,EGNX,East Midlands,United Kingdom,52.8311004639,-1.3280600309
524,,Llanbedr Airport,EGOD,Llanbedr,United Kingdom,52.8116989136,-4.1235799789
525,,RAF Ternhill,EGOE,Ternhill,United Kingdom,52.8712005615,-2.5335600376
526,,RAF Shawbury,EGOS,Shawbury,United Kingdom,52.7981987,-2.6680400372
528,,RAF Woodvale,EGOW,Woodvale,United Kingdom,53.5816,-3.05552
529,KOI,Kirkwall Airport,EGPA,Kirkwall,United Kingdom,58.9578018188,-2.9049999714
530,LSI,Sumburgh Airport,EGPB,Sumburgh,United Kingdom,59.8788986206,-1.2955600023
531,WIC,Wick Airport,EGPC,Wick,United Kingdom,58.4589004517,-3.0930600166
532,ABZ,Aberdeen Dyce Airport,EGPD,Aberdeen,United Kingdom,57.2019004822,-2.1977798939
533,INV,Inverness Airport,EGPE,Inverness,United Kingdom,57.5424995422,-4.0475001335
534,GLA,Glasgow International Airport,EGPF,Glasgow,United Kingdom,55.8718986511,-4.4330601692
535,EDI,Edinburgh Airport,EGPH,Edinburgh,United Kingdom,55.9500007629,-3.3724999428
536,ILY,Islay Airport,EGPI,Islay,United Kingdom,55.6819000244,-6.2566699982
537,PIK,Glasgow Prestwick Airport,EGPK,Prestwick,United Kingdom,55.5093994141,-4.5866699219
538,BEB,Benbecula Airport,EGPL,Benbecula,United Kingdom,57.481098175,-7.3627800941
539,SCS,Scatsta Airport,EGPM,Scatsta,United Kingdom,60.432800293,-1.296110034
540,DND,Dundee Airport,EGPN,Dundee,United Kingdom,56.4524993896,-3.0258300304
541,SYY,Stornoway Airport,EGPO,Stornoway,United Kingdom,58.2155990601,-6.3311100006
542,TRE,Tiree Airport,EGPU,Tiree,United Kingdom,56.4991989136,-6.8691701889
543,ADX,RAF Leuchars,EGQL,Leuchars,United Kingdom,56.3728981018,-2.8684399128
544,LMO,RAF Lossiemouth,EGQS,Lossiemouth,United Kingdom,57.7052001953,-3.3391699791
545,CBG,Cambridge Airport,EGSC,Cambridge,United Kingdom,52.205002,0.175
546,,Peterborough Business Airport,EGSF,Peterborough,United Kingdom,52.4681015015,-0.2511110008
547,NWI,Norwich International Airport,EGSH,Norwich,United Kingdom,52.6758003235,1.2827800512
548,STN,London Stansted Airport,EGSS,London,United Kingdom,51.8849983215,0.2349999994
549,,North Weald Airport,EGSX,North Weald,United Kingdom,51.721698761,0.1541669965
550,,Sheffield City Heliport,EGSY,Fowlmere,United Kingdom,53.394299,-1.38849
551,,Cranfield Airport,EGTC,Cranfield,United Kingdom,52.0722007751,-0.6166669726
552,EXT,Exeter International Airport,EGTE,Exeter,United Kingdom,50.7344017029,-3.4138898849
553,FZO,Bristol Filton Airport,EGTG,Bristol,United Kingdom,51.5194015503,-2.5908300877
554,OXF,Oxford (Kidlington) Airport,EGTK,Oxford,United Kingdom,51.8368988037,-1.3200000525
555,BEX,RAF Benson,EGUB,Benson,United Kingdom,51.6164016724,-1.0958299637
556,LKZ,RAF Lakenheath,EGUL,Lakenheath,United Kingdom,52.4093017578,0.5609999895
557,MHZ,RAF Mildenhall,EGUN,Mildenhall,United Kingdom,52.3619003296,0.4864059985
558,,RAF Wattisham,EGUW,Wattisham,United Kingdom,52.1273002625,0.956264019
559,QUY,RAF Wyton,EGUY,Wyton,United Kingdom,52.3572006226,-0.107832998
560,FFD,RAF Fairford,EGVA,Fairford,United Kingdom,51.6822013855,-1.7900300026
561,BZZ,RAF Brize Norton,EGVN,Brize Norton,United Kingdom,51.75,-1.58362
562,ODH,RAF Odiham,EGVO,Odiham,United Kingdom,51.2341003418,-0.9428250194
563,,DCAE Cosford Air Base,EGWC,Cosford,United Kingdom,52.639999,-2.30558
564,NHT,RAF Northolt,EGWU,Northolt,United Kingdom,51.5530014038,-0.418166995
565,QCY,RAF Coningsby,EGXC,Coningsby,United Kingdom,53.0929985046,-0.1660140008
566,,RAF Dishforth,EGXD,Dishforth,United Kingdom,54.1371994019,-1.4202500582
567,,Leeming Airport,EGXE,Leeming,United Kingdom,54.2924,-1.5354
568,,Leeds East Airport,EGXG,Church Fenton,United Kingdom,53.834301,-1.1955
569,BEQ,RAF Honington,EGXH,Honington,United Kingdom,52.3426017761,0.7729390264
570,,RAF Cottesmore,EGXJ,Cottesmore,United Kingdom,52.735699,-0.648769
571,SQZ,RAF Scampton,EGXP,Scampton,United Kingdom,53.307800293,-0.5508329868
572,,RAF Wittering,EGXT,Wittering,United Kingdom,52.612598,-0.476453
573,HRT,RAF Linton-On-Ouse,EGXU,Linton-on-ouse,United Kingdom,54.0489006042,-1.2527500391
574,WTN,RAF Waddington,EGXW,Waddington,United Kingdom,53.1661987305,-0.5238109827
575,,RAF Topcliffe,EGXZ,Topcliffe,United Kingdom,54.2055015564,-1.3820899725
576,,RAF Cranwell,EGYD,Cranwell,United Kingdom,53.0303001404,-0.4832420051
577,,RAF Barkston Heath,EGYE,Barkston Heath,United Kingdom,52.9622001648,-0.5616250038
578,KNF,RAF Marham,EGYM,Marham,United Kingdom,52.648395,0.550692
579,MPN,Mount Pleasant Airport,EGYP,Mount Pleasant,Falkland Islands,-51.8227996826,-58.4472007751
580,AMS,Amsterdam Airport Schiphol,EHAM,Amsterdam,Netherlands,52.308601,4.76389
581,,Budel Airfield Kempen,EHBD,Weert,Netherlands,51.255299,5.60139
582,MST,Maastricht Aachen Airport,EHBK,Maastricht,Netherlands,50.911701,5.77014
583,,Deelen Air Base,EHDL,Deelen,Netherlands,52.0606,5.87306
584,,Drachten Airport,EHDR,Drachten,Netherlands,53.1192016602,6.129720211
585,EIN,Eindhoven Airport,EHEH,Eindhoven,Netherlands,51.4500999451,5.3745298386
586,GRQ,Eelde Airport,EHGG,Groningen,Netherlands,53.1197013855,6.5794401169
587,GLZ,Gilze Rijen Air Base,EHGR,Gilze-rijen,Netherlands,51.567401886,4.9318299294
588,DHR,De Kooy Airport,EHKD,De Kooy,Netherlands,52.9234008789,4.7806200981
589,LEY,Lelystad Airport,EHLE,Lelystad,Netherlands,52.4603,5.52722
590,LWR,Leeuwarden Air Base,EHLW,Leeuwarden,Netherlands,53.2285995483,5.7605600357
591,RTM,Rotterdam The Hague Airport,EHRD,Rotterdam,Netherlands,51.956902,4.43722
592,UTC,Soesterberg Air Base,EHSB,Soesterberg,Netherlands,52.1273002625,5.2761898041
593,ENS,Twente Airport,EHTW,Enschede,Netherlands,52.275833,6.889167
594,LID,Valkenburg Naval Air Base,EHVB,Valkenburg,Netherlands,52.1660995483,4.4179401398
595,WOE,Woensdrecht Air Base,EHWO,Woensdrecht,Netherlands,51.4491,4.34203
596,ORK,Cork Airport,EICK,Cork,Ireland,51.8413009644,-8.491109848
597,GWY,Galway Airport,EICM,Galway,Ireland,53.300201416,-8.9415903091
599,DUB,Dublin Airport,EIDW,Dublin,Ireland,53.421299,-6.27007
600,NOC,Ireland West Knock Airport,EIKN,Connaught,Ireland,53.9103012085,-8.8184900284
601,KIR,Kerry Airport,EIKY,Kerry,Ireland,52.1809005737,-9.5237798691
602,,Casement Air Base,EIME,Casement,Ireland,53.301700592,-6.4513301849
603,SNN,Shannon Airport,EINN,Shannon,Ireland,52.702,-8.92482
604,SXL,Sligo Airport,EISG,Sligo,Ireland,54.2802009583,-8.5992097855
605,WAT,Waterford Airport,EIWF,Waterford,Ireland,52.1871986389,-7.0869598389
607,AAR,Aarhus Airport,EKAH,Aarhus,Denmark,56.2999992371,10.6190004349
608,BLL,Billund Airport,EKBI,Billund,Denmark,55.7402992249,9.1517801285
609,CPH,Copenhagen Kastrup Airport,EKCH,Copenhagen,Denmark,55.6179008484,12.6560001373
610,EBJ,Esbjerg Airport,EKEB,Esbjerg,Denmark,55.525902,8.5534
611,,Grønholt Hillerød Airport,EKGH,Gronholt,Denmark,55.9413986206,12.3822002411
612,KRP,Karup Airport,EKKA,Karup,Denmark,56.2975006104,9.1246299744
613,BYR,Læsø Airport,EKLS,Laeso,Denmark,57.2771987915,11.0001001358
614,MRW,Lolland Falster Maribo Airport,EKMB,Maribo,Denmark,54.699299,11.4401
615,ODE,Odense Airport,EKOD,Odense,Denmark,55.4766998291,10.3309001923
616,,Kruså-Padborg Airport,EKPB,Krusa-padborg,Denmark,54.870300293,9.279009819
617,RKE,Copenhagen Roskilde Airport,EKRK,Copenhagen,Denmark,55.5856018066,12.1314001083
618,RNN,Bornholm Airport,EKRN,Ronne,Denmark,55.0633010864,14.7595996857
619,SGD,Sønderborg Airport,EKSB,Soenderborg,Denmark,54.9644012451,9.7917299271
621,SKS,Skrydstrup Air Base,EKSP,Skrydstrup,Denmark,55.221048,9.26702
622,SQW,Skive Airport,EKSV,Skive,Denmark,56.550201416,9.1729803085
623,TED,Thisted Airport,EKTS,Thisted,Denmark,57.0688018799,8.7052202225
624,,Kolding Vamdrup Airfield,EKVD,Kolding,Denmark,55.436298,9.33092
625,FAE,Vagar Airport,EKVG,Vagar,Faroe Islands,62.0635986328,-7.2772197723
626,,Vesthimmerlands Flyveplads,EKVH,Vesthimmerland,Denmark,56.846901,9.45861
627,STA,Stauning Airport,EKVJ,Stauning,Denmark,55.9901008606,8.3539104462
628,AAL,Aalborg Airport,EKYT,Aalborg,Denmark,57.0927589138,9.8492431641
629,LUX,Luxembourg-Findel International Airport,ELLX,Luxemburg,Luxembourg,49.6233333,6.2044444
630,AES,Ålesund Airport,ENAL,Alesund,Norway,62.5625,6.119699955
631,ANX,Andøya Airport,ENAN,Andoya,Norway,69.2925033569,16.1441993713
632,ALF,Alta Airport,ENAT,Alta,Norway,69.9760971069,23.3717002869
633,,Bømoen Airport,ENBM,Voss,Norway,60.6389007568,6.5015001297
634,BNN,Brønnøysund Airport,ENBN,Bronnoysund,Norway,65.4610977173,12.217499733
635,BOO,Bodø Airport,ENBO,Bodo,Norway,67.269203186,14.3653001785
636,BGO,Bergen Airport Flesland,ENBR,Bergen,Norway,60.29339981,5.218140125
637,BJF,Båtsfjord Airport,ENBS,Batsfjord,Norway,70.6005020142,29.691400528
638,KRS,Kristiansand Airport,ENCN,Kristiansand,Norway,58.204201,8.08537
639,DLD,Geilo Airport Dagali,ENDI,Geilo,Norway,60.417301178,8.5183496475
640,BDU,Bardufoss Airport,ENDU,Bardufoss,Norway,69.0558013916,18.5403995514
641,EVE,"Harstad/Narvik Airport, Evenes",ENEV,Harstad/Narvik,Norway,68.4913024902,16.6781005859
642,VDB,Leirin Airport,ENFG,Fagernes,Norway,61.0155982971,9.2880601883
643,FRO,Florø Airport,ENFL,Floro,Norway,61.5835990906,5.024720192
644,OSL,Oslo Lufthavn,ENGM,Oslo,Norway,60.121,11.0502
645,HAU,Haugesund Airport,ENHD,Haugesund,Norway,59.3452987671,5.2083601952
646,HAA,Hasvik Airport,ENHK,Hasvik,Norway,70.4867019653,22.1396999359
647,KSU,Kristiansund Airport (Kvernberget),ENKB,Kristiansund,Norway,63.1118011475,7.8245201111
648,,Kjeller Airport,ENKJ,Kjeller,Norway,59.9692993164,11.0361003876
649,KKN,Kirkenes Airport (Høybuktmoen),ENKR,Kirkenes,Norway,69.7257995605,29.8913002014
650,FAN,Lista Airport,ENLI,Farsund,Norway,58.0994987488,6.6260499954
651,MOL,Molde Airport,ENML,Molde,Norway,62.7447013855,7.2624998093
652,MJF,Mosjøen Airport (Kjærstad),ENMS,Mosjoen,Norway,65.783996582,13.2149000168
653,LKL,Banak Airport,ENNA,Lakselv,Norway,70.0688018799,24.9734992981
654,NTB,Notodden Airport,ENNO,Notodden,Norway,59.565701,9.21222
655,OLA,Ørland Airport,ENOL,Orland,Norway,63.6988983154,9.6040000916
656,RRS,Røros Airport,ENRO,Roros,Norway,62.5783996582,11.342300415
657,RYG,"Moss Airport, Rygge",ENRY,Rygge,Norway,59.378817,10.785439
658,LYR,"Svalbard Airport, Longyear",ENSB,Svalbard,Norway,78.2461013794,15.4656000137
659,SKE,Skien Airport,ENSN,Skien,Norway,59.1850013733,9.5669403076
660,SRP,Stord Airport,ENSO,Stord,Norway,59.7919006348,5.3408498764
662,SSJ,Sandnessjøen Airport (Stokka),ENST,Sandnessjoen,Norway,65.9568023682,12.4688997269
663,TOS,"Tromsø Airport,",ENTC,Tromso,Norway,69.6832962036,18.9188995361
664,TRF,"Sandefjord Airport, Torp",ENTO,Sandefjord,Norway,59.1866989136,10.258600235
665,TRD,Trondheim Airport Værnes,ENVA,Trondheim,Norway,63.4578018,10.9239998
666,SVG,Stavanger Airport Sola,ENZV,Stavanger,Norway,58.876701354,5.6377801895
667,,Babice Airport,EPBC,Warsaw,Poland,52.2685012817,20.9109992981
668,GDN,Gdańsk Lech Wałęsa Airport,EPGD,Gdansk,Poland,54.3776016235,18.4661998749
669,KRK,Kraków John Paul II International Airport,EPKK,Krakow,Poland,50.077702,19.7848
670,,Muchowiec Airport,EPKM,Katowice,Poland,50.2380981445,19.0342006683
671,KTW,Katowice International Airport,EPKT,Katowice,Poland,50.4743,19.08
673,,Mielec Airport,EPML,Mielec,Poland,50.3222999573,21.4620990753
674,POZ,Poznań-Ławica Airport,EPPO,Poznan,Poland,52.4210014343,16.8262996674
675,RZE,Rzeszów-Jasionka Airport,EPRZ,Rzeszow,Poland,50.1100006104,22.0189990997
676,SZZ,"Szczecin-Goleniów ""Solidarność"" Airport",EPSC,Szczecin,Poland,53.5847015381,14.9021997452
677,OSP,Redzikowo Air Base,EPSK,Slupsk,Poland,54.4789009094,17.1075000763
678,,Swidwin Military Air Base,EPSN,Shapaja,Poland,53.790599823,15.8262996674
679,WAW,Warsaw Chopin Airport,EPWA,Warsaw,Poland,52.1656990051,20.9671001434
680,WRO,Copernicus Wrocław Airport,EPWR,Wroclaw,Poland,51.1026992798,16.885799408
681,IEG,Zielona Góra-Babimost Airport,EPZG,Zielona Gora,Poland,52.1385002136,15.7986001968
682,,Malmen Air Base,ESCF,Linkoeping,Sweden,58.4023017883,15.5256996155
683,,Bråvalla Air Base,ESCK,Norrkoeping,Sweden,58.6109008789,16.1035995483
684,,Uppsala Airport,ESCM,Uppsala,Sweden,59.8973007202,17.5886001587
685,RNB,Ronneby Airport,ESDF,Ronneby,Sweden,56.2667007446,15.2650003433
686,,Råda Air Base,ESFR,Rada,Sweden,58.4981002808,13.0531997681
687,GOT,Gothenburg-Landvetter Airport,ESGG,Gothenborg,Sweden,57.6627998352,12.279800415
688,JKG,Jönköping Airport,ESGJ,Joenkoeping,Sweden,57.757598877,14.0686998367
689,,Falköping Airport,ESGK,Falkoping,Sweden,58.1697998047,13.5878000259
690,LDK,Lidköping-Hovby Airport,ESGL,Lidkoping,Sweden,58.4655,13.1744
691,GSE,Gothenburg City Airport,ESGP,Gothenborg,Sweden,57.7747,11.8704
692,KVB,Skövde Airport,ESGR,Skovde,Sweden,58.456401825,13.972700119
693,THN,Trollhättan-Vänersborg Airport,ESGT,Trollhattan,Sweden,58.3180999756,12.345000267
694,,Karlsborg Air Base,ESIA,Karlsborg,Sweden,58.5138015747,14.5071001053
695,,Såtenäs Air Base,ESIB,Satenas,Sweden,58.426399231,12.7144002914
696,,Barkarby Airport,ESKB,Stockholm,Sweden,59.4144743644,17.8821372986
697,KSK,Karlskoga Airport,ESKK,Karlskoga,Sweden,59.3459014893,14.4959001541
698,MXX,Mora Airport,ESKM,Mora,Sweden,60.957901,14.5114
699,NYO,Stockholm Skavsta Airport,ESKN,Stockholm,Sweden,58.7886009216,16.9122009277
700,,Arvika Airport,ESKV,Arvika,Sweden,59.6759,12.6394
701,,Emmaboda Airfield,ESMA,Emmaboda,Sweden,56.610802,15.6048
702,,Feringe Airport,ESMG,Ljungby,Sweden,56.9502983093,13.9216995239
703,KID,Kristianstad Airport,ESMK,Kristianstad,Sweden,55.9216995239,14.0854997635
704,,Landskrona Airport,ESML,Landskrona,Sweden,55.9459991455,12.8699998856
705,OSK,Oskarshamn Airport,ESMO,Oskarshamn,Sweden,57.350498,16.497999
706,,Anderstorp Airport,ESMP,Anderstorp,Sweden,57.2641983032,13.5993995667
707,KLR,Kalmar Airport,ESMQ,Kalkmar,Sweden,56.6855010986,16.2875995636
708,MMX,Malmö Sturup Airport,ESMS,Malmoe,Sweden,55.536305364,13.3761978149
709,HAD,Halmstad Airport,ESMT,Halmstad,Sweden,56.6911010742,12.8201999664
710,,Hagshult Air Base,ESMV,Hagshult,Sweden,57.292198,14.1372
711,VXO,Växjö Kronoberg Airport,ESMX,Vaxjo,Sweden,56.9291000366,14.7279996872
712,,Hallviken Airport,ESNA,Hallviken,Sweden,63.7383003235,15.4582996368
713,,Hedlanda Airport,ESNC,Hede,Sweden,62.4089012146,13.7472000122
714,EVG,Sveg Airport,ESND,Sveg,Sweden,62.0477981567,14.4229001999
715,GEV,Gällivare Airport,ESNG,Gallivare,Sweden,67.1324005127,20.8145999908
716,HUV,Hudiksvall Airport,ESNH,Hudiksvall,Sweden,61.7681007385,17.0806999207
717,,Jokkmokk Airport,ESNJ,Jokkmokk,Sweden,66.4962005615,20.1471996307
718,KRF,Kramfors Sollefteå Airport,ESNK,Kramfors,Sweden,63.0485992432,17.7688999176
719,LYC,Lycksele Airport,ESNL,Lycksele,Sweden,64.5483016968,18.7161998749
720,,Optand Airport,ESNM,Optand,Sweden,63.1286010742,14.8028001785
721,SDL,Sundsvall-Härnösand Airport,ESNN,Sundsvall,Sweden,62.5280990601,17.4438991547
722,OER,Örnsköldsvik Airport,ESNO,Ornskoldsvik,Sweden,63.4082984924,18.9899997711
723,,Piteå Airport,ESNP,Pitea,Sweden,65.3983001709,21.260799408
724,KRN,Kiruna Airport,ESNQ,Kiruna,Sweden,67.8219985962,20.3367996216
725,,Orsa Airport,ESNR,Orsa,Sweden,61.1899986267,14.7125997543
726,SFT,Skellefteå Airport,ESNS,Skelleftea,Sweden,64.6248016357,21.0769004822
727,,Sättna Airport,ESNT,Sattna,Sweden,62.4814,17.002899
728,UME,Umeå Airport,ESNU,Umea,Sweden,63.7918014526,20.2828006744
729,VHM,Vilhelmina Airport,ESNV,Vilhelmina,Sweden,64.5791015625,16.8335990906
730,AJR,Arvidsjaur Airport,ESNX,Arvidsjaur,Sweden,65.5903015137,19.2819004059
731,ORB,Örebro Airport,ESOE,Orebro,Sweden,59.2237014771,15.0380001068
733,VST,Stockholm Västerås Airport,ESOW,Vasteras,Sweden,59.5894012451,16.633600235
734,LLA,Luleå Airport,ESPA,Lulea,Sweden,65.543800354,22.1219997406
735,,Vidsel Air Base,ESPE,Vidsel,Sweden,65.8752975464,20.1499004364
736,,Arboga Airport,ESQO,Arboga,Sweden,59.3866004944,15.9240999222
737,ARN,Stockholm-Arlanda Airport,ESSA,Stockholm,Sweden,59.6519012451,17.9186000824
738,BMA,Stockholm-Bromma Airport,ESSB,Stockholm,Sweden,59.3544006348,17.9416999817
739,BLE,Borlange Airport,ESSD,Borlange,Sweden,60.422000885,15.5151996613
740,HLF,Hultsfred Airport,ESSF,Hultsfred,Sweden,57.525799,15.8233
741,GVX,Gävle Sandviken Airport,ESSK,Gavle,Sweden,60.5932998657,16.9514007568
742,LPI,Linköping City Airport,ESSL,Linkoeping,Sweden,58.4062004089,15.6805000305
743,NRK,Norrköping Airport,ESSP,Norrkoeping,Sweden,58.5862998962,16.2506008148
745,EKT,Eskilstuna Airport,ESSU,Eskilstuna,Sweden,59.3511009216,16.7084007263
746,VBY,Visby Airport,ESSV,Visby,Sweden,57.6627998352,18.346200943
748,,Kalixfors Airport,ESUK,Kalixfors,Sweden,67.7648010254,20.2572002411
750,SPM,Spangdahlem Air Base,ETAD,Spangdahlem,Germany,49.9726982117,6.6925001144
751,RMS,Ramstein Air Base,ETAR,Ramstein,Germany,49.4369010925,7.600279808
754,,Bückeburg Air Base,ETHB,Brueckeburg,Germany,52.2785,9.08217
755,ZCN,Celle Airport,ETHC,Celle,Germany,52.5912017822,10.0221004486
756,,Rheine Bentlage Air Base,ETHE,Rheine-brentlange,Germany,52.291199,7.387
757,FRZ,Fritzlar Airport,ETHF,Fritzlar,Germany,51.1146,9.286
758,,Laupheim Air Base,ETHL,Laupheim,Germany,48.220299,9.91002
759,,Mendig Airfield,ETHM,Mendig,Germany,50.366001,7.31533
760,,Niederstetten Army Air Base,ETHN,Niederstetten,Germany,49.391945,9.958889
761,,Roth Airport,ETHR,Roth,Germany,49.2174987793,11.1001996994
762,,Fassberg Air Base,ETHS,Fassberg,Germany,52.919399,10.185827
763,,Grafenwohr Army Air Field,ETIC,Grafenwoehr,Germany,49.6986999512,11.940199852
764,ZNF,Hanau Army Air Field,ETID,Hanau,Germany,50.169201,8.96159
765,,Hohenfels Army Air Field,ETIH,Hohenfels,Germany,49.2181015015,11.8360996246
766,KZG,Flugplatz Kitzingen,ETIN,Kitzingen,Germany,49.743099,10.2006
767,FCN,Nordholz Naval Airbase,ETMN,Nordholz,Germany,53.7677001953,8.6584997177
768,,Diepholz Air Base,ETND,Diepholz,Germany,52.585556,8.342222
769,GKE,Geilenkirchen Air Base,ETNG,Geilenkirchen,Germany,50.9608,6.04242
770,,Hohn Air Base,ETNH,Hohn,Germany,54.312199,9.53817
771,,Jever Air Base,ETNJ,Jever,Germany,53.533501,7.88867
772,RLG,Rostock-Laage Airport,ETNL,Laage,Germany,53.9182014465,12.2783002853
773,,Nörvenich Air Base,ETNN,Noervenich,Germany,50.8312,6.65817
774,WBG,Schleswig Air Base,ETNS,Schleswig,Germany,54.459301,9.51633
775,,Wittmundhafen Airport,ETNT,Wittmundhafen,Germany,53.5477981567,7.6673297882
777,,Wunstorf Air Base,ETNW,Wunstorf,Germany,52.457298,9.42717
778,,Vilseck Army Air Field,ETOI,Vilseck,Germany,49.6335983276,11.76720047
779,,Coleman Army Air Field,ETOR,Coleman,Germany,49.5635986328,8.4633903503
780,WIE,Wiesbaden Army Airfield,ETOU,Wiesbaden,Germany,50.0498008728,8.3254003525
781,,Landsberg Lech Air Base,ETSA,Landsberg,Germany,48.070599,10.906
782,,Büchel Air Base,ETSB,Buechel,Germany,50.1738014221,7.0633301735
783,,Erding Airport,ETSE,Erding,Germany,48.3222999573,11.9486999512
784,FEL,Fürstenfeldbruck Air Base,ETSF,Fuerstenfeldbruck,Germany,48.205555,11.266944
785,,Holzdorf Air Base,ETSH,Holzdorf,Germany,51.767799,13.1677
786,IGS,Ingolstadt Manching Airport,ETSI,Ingolstadt,Germany,48.7156982422,11.5340003967
787,,Lechfeld Air Base,ETSL,Lechfeld,Germany,48.185504,10.8612
788,,Neuburg AFB,ETSN,Neuburg,Germany,48.710999,11.2115
789,GUT,Gütersloh Air Base,ETUO,Guetersloh,Germany,51.922798,8.30633
790,ALJ,Alexander Bay Airport,FAAB,Alexander Bay,South Africa,-28.575001,16.5333
791,AGZ,Aggeneys Airport,FAAG,Aggeneys,South Africa,-29.2817993164,18.8138999939
792,,Brakpan Airport,FABB,Brakpan,South Africa,-26.2385997772,28.3017997742
793,BIY,Bisho Airport,FABE,Bisho,South Africa,-32.8970985413,27.2791004181
794,BFN,Bram Fischer International Airport,FABL,Bloemfontein,South Africa,-29.0926990509,26.302400589
795,,Bethlehem Airport,FABM,Bethlehem,South Africa,-28.2483997345,28.3360996246
796,,Hendrik Potgieter Airport,FABO,Bothaville,South Africa,-27.3668003082,26.6291999817
797,CPT,Cape Town International Airport,FACT,Cape Town,South Africa,-33.9648017883,18.6016998291
798,,Calvinia Airport,FACV,Calvinia,South Africa,-31.5002994537,19.72590065
799,DUR,King Shaka International Airport,FALE,Durban,South Africa,-29.6144444444,31.1197222222
800,ELS,Ben Schoeman Airport,FAEL,East London,South Africa,-33.0355987549,27.8258991241
801,,Ermelo Airport,FAEO,Ermelo,South Africa,-26.4955997467,29.9797992706
802,FCB,Ficksburg Sentraoes Airport,FAFB,Ficksburg,South Africa,-28.8230991364,27.9088993073
803,GCJ,Grand Central Airport,FAGC,Johannesburg,South Africa,-25.9862995148,28.1401004791
804,GRJ,George Airport,FAGG,George,South Africa,-34.0056,22.378902
806,,Graaff Reinet Airport,FAGR,Graaff Reinet,South Africa,-32.1935997009,24.5414009094
807,,Grahamstown Airport,FAGT,Grahamstown,South Africa,-33.2846984863,26.4981002808
808,,Greytown Airport,FAGY,Greytown,South Africa,-29.1219997406,30.5867004395
809,,Harmony Airport,FAHA,Harmony,South Africa,-28.0786991119,26.8612003326
810,HRS,Harrismith Airport,FAHR,Harrismith,South Africa,-28.2350997925,29.1061992645
811,HDS,Hoedspruit Air Force Base Airport,FAHS,Hoedspruit,South Africa,-24.3686008453,31.0487003326
812,,Gariep Dam Airport,FAHV,Hendrik Verwoerddam,South Africa,-30.5622005463,25.5282993317
813,JNB,OR Tambo International Airport,FAOR,Johannesburg,South Africa,-26.1392,28.246
814,KXE,P C Pelser Airport,FAKD,Klerksdorp,South Africa,-26.871099472,26.718000412
815,KIM,Kimberley Airport,FAKM,Kimberley,South Africa,-28.8027992249,24.7651996613
816,,Krugersdorp Airport,FAKR,Krugersdorp,South Africa,-26.0808259199,27.7259149551
817,,Kroonstad Airport,FAKS,Kroonstad,South Africa,-27.6606006622,27.3157997131
818,KMH,Johan Pienaar Airport,FAKU,Kuruman,South Africa,-27.4566993713,23.4113998413
819,KLZ,Kleinsee Airport,FAKZ,Kleinsee,South Africa,-29.6884002686,17.0939998627
820,HLA,Lanseria Airport,FALA,Johannesburg,South Africa,-25.9384994507,27.9260997772
821,,Lichtenburg Airport,FALI,Lichtenburg,South Africa,-26.175699234,26.1846008301
822,,Makhado Air Force Base Airport,FALM,Lambertsbaai,South Africa,-23.1599006653,29.6965007782
823,SDB,Langebaanweg Airport,FALW,Langebaanweg,South Africa,-32.9688987732,18.1602993011
824,LAY,Ladysmith Airport,FALY,Ladysmith,South Africa,-28.5816993713,29.7497005463
825,,Middelburg Airport,FAMB,Middelburg,South Africa,-25.6847991943,29.4402008057
827,MGH,Margate Airport,FAMG,Margate,South Africa,-30.8574008942,30.343000412
828,,Marble Hall Airport,FAMI,Marble Hall,South Africa,-24.9890995026,29.2831001282
829,,Majuba Power Station Airport,FAMJ,Majuba Power Station,South Africa,-27.0792999268,29.7784996033
831,LLE,Riverside Airport,FAMN,Malalane,South Africa,-25.4300003052,31.5767002106
832,,Morningside Farm Airport,FAMS,Musina,South Africa,-25.7045001984,26.9090003967
833,MZQ,Mkuze Airport,FAMU,Mkuze,South Africa,-27.6261005402,32.0443000793
834,NCS,Newcastle Airport,FANC,Newcastle,South Africa,-27.7705993652,29.9769001007
835,,Nylstroom Airfield,FANY,Nylstroom,South Africa,-24.6861000061,28.4349002838
836,OVG,Overberg Airport,FAOB,Overberg,South Africa,-34.554901123,20.2506999969
837,OUH,Oudtshoorn Airport,FAOH,Oudtshoorn,South Africa,-33.6069984436,22.188999176
838,PLZ,Port Elizabeth Airport,FAPE,Port Elizabeth,South Africa,-33.9849014282,25.6173000336
839,PBZ,Plettenberg Bay Airport,FAPG,Plettenberg Bay,South Africa,-34.0881601675,23.3287234306
840,PHW,Hendrik Van Eck Airport,FAPH,Phalaborwa,South Africa,-23.9372005463,31.1553993225
841,,Pietersburg Municipal Airport,FAPI,Polokwane,South Africa,-23.9260997772,29.4843997955
842,JOH,Port St Johns Airport,FAPJ,Port Saint Johns,South Africa,-31.6058998108,29.5198001862
843,PZB,Pietermaritzburg Airport,FAPM,Pietermaritzburg,South Africa,-29.6490001678,30.3987007141
844,NTY,Pilanesberg International Airport,FAPN,Pilanesberg,South Africa,-25.3337993622,27.1734008789
845,PTG,Polokwane International Airport,FAPP,Potgietersrus,South Africa,-23.845269,29.458615
846,PCF,Potchefstroom Airport,FAPS,Potchefstroom,South Africa,-26.670999527,27.0818996429
847,,Parys Airport,FAPY,Parys,South Africa,-26.8892993927,27.5034008026
848,UTW,Queenstown Airport,FAQT,Queenstown,South Africa,-31.9202003479,26.8822002411
849,RCB,Richards Bay Airport,FARB,Richard's Bay,South Africa,-28.7409992218,32.0920982361
850,,Rustenburg Airport,FARG,Rustenburg,South Africa,-25.6443004608,27.2710990906
851,ROD,Robertson Airport,FARS,Robertson,South Africa,-33.8121986389,19.9027996063
852,SBU,Springbok Airport,FASB,Springbok,South Africa,-29.6893005371,17.9395999908
853,ZEC,Secunda Airport,FASC,Secunda,South Africa,-26.52409935,29.1700992584
854,,Saldanha /Vredenburg Airport,FASD,Saldanha,South Africa,-32.964099884,17.9692993164
855,,Springs Airfield,FASI,Springs,South Africa,-26.2494004736,28.3982715607
856,,Swartkop Air Force Base,FASK,Swartkop,South Africa,-25.8097000122,28.1646003723
857,SIS,Sishen Airport,FASS,Sishen,South Africa,-27.6485996246,22.9993000031
858,,Hendrik Swellengrebel Airport,FASX,Swellendam,South Africa,-34.0481987,20.4745998383
859,SZK,Skukuza Airport,FASZ,Skukuza,South Africa,-24.960899353,31.5886993408
860,,Tommys Field Airport,FATF,Tommy's Field,South Africa,-28.2600002289,22.9932003021
861,,New Tempe Airport,FATP,Bloemfontein,South Africa,-29.0328998566,26.1576004028
862,,Tutuka Power Station Airport,FATT,Tutuka,South Africa,-26.776599884,29.3388004303
863,LTA,Tzaneen Airport,FATZ,Tzaneen,South Africa,-23.8243999481,30.3292999268
864,ULD,Prince Mangosuthu Buthelezi Airport,FAUL,Ulundi,South Africa,-28.3206005096,31.4165000916
865,UTN,Pierre Van Ryneveld Airport,FAUP,Upington,South Africa,-28.39909935,21.2602005005
866,UTT,K. D. Matanzima Airport,FAUT,Umtata,South Africa,-31.5463631849,28.6733551025
867,VRU,Vryburg Airport,FAVB,Vryburg,South Africa,-26.9824008942,24.7287998199
868,VIR,Virginia Airport,FAVG,Durban,South Africa,-29.7705993652,31.0583992004
869,VRE,Vredendal Airport,FAVR,Vredendal,South Africa,-31.6410007477,18.5447998047
870,,Vereeniging Airport,FAVV,Vereeniging,South Africa,-26.566400528,27.9608001709
871,PRY,Wonderboom Airport,FAWB,Pretoria,South Africa,-25.6539,28.224199
872,,Witbank Airport,FAWI,Witbank,South Africa,-25.8323001862,29.1919994354
873,WKF,Waterkloof Air Force Base,FAWK,Waterkloof,South Africa,-25.8299999237,28.2224998474
874,,Welkom Airport,FAWM,Welkom,South Africa,-27.9968245111,26.6633338928
875,,Ysterplaat Air Force Base,FAYP,Ysterplaat,South Africa,-33.9001998901,18.4983005524
876,,Zeerust Airport,FAZR,Zeerust,South Africa,-25.5990009308,26.0422992706
877,FRW,Francistown Airport,FBFT,Francistown,Botswana,-21.1595993042,27.4745006561
878,JWA,Jwaneng Airport,FBJW,Jwaneng,Botswana,-24.6023006439,24.6909999847
879,BBK,Kasane Airport,FBKE,Kasane,Botswana,-17.8328990936,25.162399292
880,MUB,Maun Airport,FBMN,Maun,Botswana,-19.9726009369,23.4311008453
881,GBE,Sir Seretse Khama International Airport,FBSK,Gaberone,Botswana,-24.555201,25.9182
882,PKW,Selebi Phikwe Airport,FBSP,Selebi-phikwe,Botswana,-22.0583,27.8288
883,BZV,Maya-Maya Airport,FCBB,Brazzaville,Congo (Brazzaville),-4.2516999245,15.2530002594
884,FTX,Owando Airport,FCOO,Owando,Congo (Kinshasa),-0.5313500166,15.9500999451
885,OUE,Ouesso Airport,FCOU,Ouesso,Congo (Kinshasa),1.6159900427,16.0379009247
886,PNR,Pointe Noire Airport,FCPP,Pointe-noire,Congo (Brazzaville),-4.8160300255,11.8865995407
887,MTS,Matsapha Airport,FDMS,Manzini,Swaziland,-26.5289993286,31.3075008392
888,BGF,Bangui M'Poko International Airport,FEFF,Bangui,Central African Republic,4.3984799385,18.5188007355
889,BBT,Berbérati Airport,FEFT,Berberati,Central African Republic,4.2215800285,15.7863998413
890,BSG,Bata Airport,FGBT,Bata,Equatorial Guinea,1.9054700136,9.805680275
891,SSG,Malabo Airport,FGSL,Malabo,Equatorial Guinea,3.7552700043,8.7087202072
892,ASI,RAF Ascension Island,FHAW,Wide Awake,Saint Helena,-7.9696,-14.3937
893,MRU,Sir Seewoosagur Ramgoolam International Airport,FIMP,Plaisance,Mauritius,-20.430201,57.683601
894,RRG,Sir Charles Gaetan Duval Airport,FIMR,Rodriguez Island,Mauritius,-19.7577,63.361
895,NKW,Diego Garcia Naval Support Facility,FJDG,Diego Garcia Island,British Indian Ocean Territory,-7.31327,72.411102
896,TKC,Tiko Airport,FKKC,Tiko,Cameroon,4.0891900063,9.3605298996
897,DLA,Douala International Airport,FKKD,Douala,Cameroon,4.0060801506,9.7194795609
898,MVR,Salak Airport,FKKL,Maroua,Cameroon,10.4513998032,14.257399559
899,FOM,Foumban Nkounja Airport,FKKM,Foumban,Cameroon,5.6369199753,10.7508001328
900,NGE,N'Gaoundéré Airport,FKKN,N'gaoundere,Cameroon,7.3570098877,13.5592002869
901,GOU,Garoua International Airport,FKKR,Garoua,Cameroon,9.3358898163,13.3701000214
902,BFX,Bafoussam Airport,FKKU,Bafoussam,Cameroon,5.5369200707,10.3545999527
903,BPC,Bamenda Airport,FKKV,Bamenda,Cameroon,6.0392398834,10.1225996017
904,YAO,Yaoundé Airport,FKKY,Yaounde,Cameroon,3.83604002,11.5235004425
905,CGJ,Kasompe Airport,FLKE,Kasompe,Zambia,-12.5727996826,27.8938999176
906,LVI,Livingstone Airport,FLLI,Livingstone,Zambia,-17.8218002319,25.8227005005
907,LUN,Kenneth Kaunda International Airport Lusaka,FLLS,Lusaka,Zambia,-15.3308000565,28.4526004791
908,MFU,Mfuwe Airport,FLMF,Mfuwe,Zambia,-13.2588996887,31.9365997314
909,MNR,Mongu Airport,FLMG,Mongu,Zambia,-15.2545003891,23.1623001099
910,NLA,Simon Mwansa Kapwepwe International Airport,FLND,Ndola,Zambia,-12.9981002808,28.6648998261
911,KIW,Southdowns Airport,FLSO,Southdowns,Zambia,-12.9005002975,28.1499004364
912,HAH,Prince Said Ibrahim International Airport,FMCH,Moroni,Comoros,-11.5337,43.2719
913,NWA,Mohéli Bandar Es Eslam Airport,FMCI,Moheli,Comoros,-12.2981004715,43.7663993835
914,AJN,Ouani Airport,FMCV,Anjouan,Comoros,-12.1316995621,44.4303016663
915,DZA,Dzaoudzi Pamandzi International Airport,FMCZ,Dzaoudzi,Mayotte,-12.8046998978,45.2811012268
916,RUN,Roland Garros Airport,FMEE,St.-denis,Reunion,-20.8871002197,55.5102996826
917,ZSE,Pierrefonds Airport,FMEP,St.-pierre,Reunion,-21.3208999634,55.4249992371
918,TNR,Ivato Airport,FMMI,Antananarivo,Madagascar,-18.7969,47.478802
919,ZVA,Miandrivazo Airport,FMMN,Miandrivazo,Madagascar,-19.5627994537,45.4508018494
920,SMS,Sainte Marie Airport,FMMS,Sainte Marie,Madagascar,-17.0939006805,49.8157997131
921,TMM,Toamasina Airport,FMMT,Toamasina,Madagascar,-18.109500885,49.3925018311
922,MOQ,Morondava Airport,FMMV,Morondava,Madagascar,-20.2847003937,44.3176002502
923,DIE,Arrachart Airport,FMNA,Antsiranana,Madagascar,-12.3493995667,49.2916984558
924,WMR,Mananara Nord Airport,FMNC,Mananara,Madagascar,-16.1639003754,49.7737998962
925,ZWA,Andapa Airport,FMND,Andapa,Madagascar,-14.6517000198,49.6206016541
926,AMB,Ambilobe Airport,FMNE,Ambilobe,Madagascar,-13.1884002686,48.9879989624
927,ANM,Antsirabato Airport,FMNH,Antalaha,Madagascar,-14.9994001389,50.3202018738
928,HVA,Analalava Airport,FMNL,Analalava,Madagascar,-14.629699707,47.7638015747
929,MJN,Amborovy Airport,FMNM,Mahajanga,Madagascar,-15.6668417421,46.3512325287
930,NOS,Fascene Airport,FMNN,Nosy-be,Madagascar,-13.3121004105,48.3148002625
931,BPY,Besalampy Airport,FMNQ,Besalampy,Madagascar,-16.7445302965,44.4824838638
932,WMN,Maroantsetra Airport,FMNR,Maroantsetra,Madagascar,-15.4366998672,49.6883010864
933,SVB,Sambava Airport,FMNS,Sambava,Madagascar,-14.2785997391,50.1747016907
934,VOH,Vohimarina Airport,FMNV,Vohemar,Madagascar,-13.3758001328,50.0027999878
935,WAI,Ambalabe Airport,FMNW,Antsohihy,Madagascar,-14.8987998962,47.9939002991
936,IVA,Ampampamena Airport,FMNZ,Ampampamena,Madagascar,-13.484816,48.632702
937,FTU,Tôlanaro Airport,FMSD,Tolagnaro,Madagascar,-25.0380992889,46.9561004639
938,WFI,Fianarantsoa Airport,FMSF,Fianarantsoa,Madagascar,-21.4416007996,47.1116981506
939,RVA,Farafangana Airport,FMSG,Farafangana,Madagascar,-22.8052997589,47.8205986023
940,WVK,Manakara Airport,FMSK,Manakara,Madagascar,-22.1196994781,48.0217018127
941,MNJ,Mananjary Airport,FMSM,Mananjary,Madagascar,-21.2017993927,48.3582992554
942,MXM,Morombe Airport,FMSR,Morombe,Madagascar,-21.753900528,43.3754997253
943,TLE,Toliara Airport,FMST,Toliara,Madagascar,-23.3833999634,43.7285003662
944,SSY,Mbanza Congo Airport,FNBC,M'banza-congo,Angola,-6.2698998451,14.2469997406
945,BUG,Benguela Airport,FNBG,Benguela,Angola,-12.609000206,13.4036998749
946,CAB,Cabinda Airport,FNCA,Cabinda,Angola,-5.5969901085,12.1884002686
948,NOV,Nova Lisboa Airport,FNHU,Huambo,Angola,-12.8088998795,15.7604999542
949,SVP,Kuito Airport,FNKU,Kuito,Angola,-12.4046001434,16.9473991394
950,,Lobito Airport,FNLB,Lobito,Angola,-12.3711996078,13.5366001129
951,LAD,Quatro de Fevereiro Airport,FNLU,Luanda,Angola,-8.85837,13.2312
952,MEG,Malanje Airport,FNMA,Malanje,Angola,-9.5250902176,16.3124008179
953,SPP,Menongue Airport,FNME,Menongue,Angola,-14.6576004028,17.7198009491
955,GXG,Negage Airport,FNNG,Negage,Angola,-7.7545099258,15.2876996994
956,PBN,Porto Amboim Airport,FNPA,Porto Amboim,Angola,-10.7220001221,13.7655000687
957,VHC,Saurimo Airport,FNSA,Saurimo,Angola,-9.6890697479,20.4319000244
958,SZA,Soyo Airport,FNSO,Soyo,Angola,-6.1410899162,12.3718004227
959,SDD,Lubango Airport,FNUB,Lubango,Angola,-14.9246997833,13.5749998093
960,LUO,Luena Airport,FNUE,Luena,Angola,-11.7680997849,19.8976993561
961,UGO,Uige Airport,FNUG,Uige,Angola,-7.6030697823,15.0277996063
962,XGN,Xangongo Airport,FNXA,Xangongo,Angola,-16.755399704,14.9652996063
963,OYE,Oyem Airport,FOGO,Oyem,Gabon,1.543110013,11.5813999176
964,OKN,Okondja Airport,FOGQ,Okondja,Gabon,-0.6652140021,13.6731004715
965,LBQ,Lambarene Airport,FOGR,Lambarene,Gabon,-0.7043889761,10.2456998825
966,BMM,Bitam Airport,FOOB,Bitam,Gabon,2.0756399632,11.4932003021
967,POG,Port Gentil Airport,FOOG,Port Gentil,Gabon,-0.7117390037,8.7543802261
968,OMB,Omboue Hopital Airport,FOOH,Omboue Hospial,Gabon,-1.5747300386,9.2626895905
969,MKU,Makokou Airport,FOOK,Makokou,Gabon,0.5792109966,12.8908996582
970,LBV,Libreville Leon M'ba International Airport,FOOL,Libreville,Gabon,0.4586000144,9.4122800827
971,MVB,M'Vengue El Hadj Omar Bongo Ondimba International Airport,FOON,Franceville,Gabon,-1.656159997,13.4379997253
972,PCP,Principe Airport,FPPR,Principe,Sao Tome and Principe,1.6629400253,7.4117398262
973,TMS,São Tomé International Airport,FPST,Sao Tome,Sao Tome and Principe,0.3781749904,6.7121500969
974,BEW,Beira Airport,FQBR,Beira,Mozambique,-19.7964000702,34.9076004028
976,INH,Inhambane Airport,FQIN,Inhambane,Mozambique,-23.8763999939,35.4085006714
977,VXC,Lichinga Airport,FQLC,Lichinga,Mozambique,-13.274,35.2663
978,LFB,Lumbo Airport,FQLU,Lumbo,Mozambique,-15.0331001282,40.6716995239
979,MPM,Maputo Airport,FQMA,Maputo,Mozambique,-25.920799,32.572601
980,MUD,Mueda Airport,FQMD,Mueda,Mozambique,-11.6729001999,39.5630989075
981,MZB,Mocímboa da Praia Airport,FQMP,Mocimboa Da Praia,Mozambique,-11.3618001938,40.3549003601
982,,Marrupa Airport,FQMR,Marrupa,Mozambique,-13.2250995636,37.5521011353
983,MNC,Nacala Airport,FQNC,Nacala,Mozambique,-14.4882001877,40.7122001648
984,APL,Nampula Airport,FQNP,Nampula,Mozambique,-15.1056003571,39.2817993164
985,POL,Pemba Airport,FQPB,Pemba,Mozambique,-12.9917621613,40.5240135193
986,UEL,Quelimane Airport,FQQL,Quelimane,Mozambique,-17.8554992676,36.8690986633
987,,Songo Airport,FQSG,Songo,Mozambique,-15.6027002335,32.7732009888
988,TET,Chingozi Airport,FQTT,Tete,Mozambique,-16.1047992706,33.6402015686
989,,Ulongwe Airport,FQUG,Ulongwe,Mozambique,-14.7046003342,34.3524017334
990,VNX,Vilankulo Airport,FQVL,Vilankulu,Mozambique,-22.0184001923,35.3133010864
991,,Alphonse Airport,FSAL,Alphonse,Seychelles,-7.00478,52.7262
992,DES,Desroches Airport,FSDR,Desroches,Seychelles,-5.6967,53.6558
993,,Farquhar Airport,FSFA,Farquhar,Seychelles,-10.1096,51.176102
994,SEZ,Seychelles International Airport,FSIA,Mahe,Seychelles,-4.67434,55.521801
995,PRI,Praslin Airport,FSPP,Praslin,Seychelles,-4.3192901611,55.6913986206
996,,Coetivy Airport,FSSC,Coetivy,Seychelles,-7.13457,56.278198
997,AEH,Abeche Airport,FTTC,Abeche,Chad,13.8470001221,20.8442993164
998,MQQ,Moundou Airport,FTTD,Moundou,Chad,8.6244096756,16.0713996887
999,NDJ,N'Djamena International Airport,FTTJ,N'djamena,Chad,12.1337,15.034
1000,FYT,Faya Largeau Airport,FTTY,Faya-largeau,Chad,17.9171009064,19.1110992432
1001,BUQ,Joshua Mqabuko Nkomo International Airport,FVBU,Bulawayo,Zimbabwe,-20.017401,28.617901
1002,,Charles Prince Airport,FVCP,Harare,Zimbabwe,-17.7516002655,30.9246997833
1003,BFO,Buffalo Range Airport,FVCZ,Chiredzi,Zimbabwe,-21.008101,31.5786
1004,VFA,Victoria Falls International Airport,FVFA,Victoria Falls,Zimbabwe,-18.0958995819,25.8390007019
1005,HRE,Robert Gabriel Mugabe International Airport,FVHA,Harare,Zimbabwe,-17.931801,31.0928
1006,KAB,Kariba International Airport,FVKB,Kariba,Zimbabwe,-16.5198001862,28.8850002289
1007,,Mutoko Airport,FVMT,Mutoko,Zimbabwe,-17.4319000244,32.1845016479
1008,UTA,Mutare Airport,FVMU,Mutare,Zimbabwe,-18.9974994659,32.6272010803
1009,MVZ,Masvingo International Airport,FVMV,Masvingo,Zimbabwe,-20.0552997589,30.8591003418
1010,,Zvishavane Airport,FVSH,Zvishavane,Zimbabwe,-20.2894992828,30.0881996155
1011,GWE,Thornhill Air Base,FVTL,Gwert,Zimbabwe,-19.4363994598,29.8619003296
1012,HWN,Hwange National Park Airport,FVWN,Hwange National Park,Zimbabwe,-18.6298999786,27.0209999084
1013,BLZ,Chileka International Airport,FWCL,Blantyre,Malawi,-15.6791000366,34.9739990234
1014,KGJ,Karonga Airport,FWKA,Karonga,Malawi,-9.9535703659,33.8930015564
1015,KBQ,Kasungu Airport,FWKG,Kasungu,Malawi,-13.0145998001,33.4686012268
1016,LLW,Lilongwe International Airport,FWKI,Lilongwe,Malawi,-13.7894001007,33.78099823
1017,ZZU,Mzuzu Airport,FWUU,Mzuzu,Malawi,-11.4447002411,34.0117988586
1018,MSU,Moshoeshoe I International Airport,FXMM,Maseru,Lesotho,-29.4622993469,27.5524997711
1019,,Mejametalana Airbase,FXMU,Maseru,Lesotho,-29.3041000366,27.5034999847
1020,FIH,Ndjili International Airport,FZAA,Kinshasa,Congo (Kinshasa),-4.38575,15.4446
1021,NLO,Ndolo Airport,FZAB,Kinshasa,Congo (Kinshasa),-4.3266601563,15.3275003433
1022,MNB,Muanda Airport,FZAG,Muanda,Congo (Kinshasa),-5.9308600426,12.3517999649
1023,,Kitona Base Airport,FZAI,Kitona Base,Congo (Kinshasa),-5.9180598259,12.4476995468
1024,FDU,Bandundu Airport,FZBO,Bandoundu,Congo (Kinshasa),-3.3113200665,17.3817005157
1025,KKW,Kikwit Airport,FZCA,Kikwit,Congo (Kinshasa),-5.0357699394,18.7856006622
1026,MDK,Mbandaka Airport,FZEA,Mbandaka,Congo (Kinshasa),0.0226000007,18.2887001038
1027,BDT,Gbadolite Airport,FZFD,Gbadolite,Congo (Kinshasa),4.2532100677,20.9752998352
1028,GMA,Gemena Airport,FZFK,Gemena,Congo (Kinshasa),3.2353699207,19.7712993622
1029,KLI,Kotakoli Airport,FZFP,Kotakoli,Congo (Kinshasa),4.1576399803,21.6508998871
1030,LIQ,Lisala Airport,FZGA,Lisala,Congo (Kinshasa),2.17066,21.496901
1031,FKI,Bangoka International Airport,FZIC,Kisangani,Congo (Kinshasa),0.4816389978,25.3379993439
1032,IRP,Matari Airport,FZJH,Isiro,Congo (Kinshasa),2.8276100159,27.588300705
1033,BUX,Bunia Airport,FZKA,Bunia,Congo (Kinshasa),1.5657199621,30.2208003998
1034,BZU,Buta Zega Airport,FZKJ,Buta Zega,Congo (Kinshasa),2.8183500767,24.7936992645
1035,BKY,Bukavu Kavumu Airport,FZMA,Bukavu/kavumu,Congo (Kinshasa),-2.3089799881,28.8087997437
1036,GOM,Goma International Airport,FZNA,Goma,Congo (Kinshasa),-1.6708099842,29.2385005951
1037,KND,Kindu Airport,FZOA,Kindu,Congo (Kinshasa),-2.9191799164,25.9153995514
1038,FBM,Lubumbashi International Airport,FZQA,Lubumashi,Congo (Kinshasa),-11.5913000107,27.5308990479
1039,KWZ,Kolwezi Airport,FZQM,Kolwezi,Congo (Kinshasa),-10.7658996582,25.5056991577
1040,FMI,Kalemie Airport,FZRF,Kalemie,Congo (Kinshasa),-5.8755598068,29.25
1041,KMN,Kamina Base Airport,FZSA,Kamina Base,Congo (Kinshasa),-8.6420202255,25.2528991699
1042,KGA,Kananga Airport,FZUA,Kananga,Congo (Kinshasa),-5.9000501633,22.4692001343
1043,MJM,Mbuji Mayi Airport,FZWA,Mbuji-mayi,Congo (Kinshasa),-6.121240139,23.5690002441
1044,BKO,Modibo Keita International Airport,GABS,Bamako,Mali,12.5335,-7.94994
1045,GAQ,Gao Airport,GAGO,Gao,Mali,16.2483997345,-0.0054560001
1046,KYS,Kayes Dag Dag Airport,GAKY,Kayes,Mali,14.4812002182,-11.4043998718
1047,MZI,Mopti Airport,GAMB,Mopti,Mali,14.5128002167,-4.079559803
1048,TOM,Timbuktu Airport,GATB,Tombouctou,Mali,16.7304992676,-3.0075800419
1049,,Tessalit Airport,GATS,Tessalit,Mali,20.2430000305,0.9773079753
1050,BJL,Banjul International Airport,GBYD,Banjul,Gambia,13.3380002975,-16.6522006989
1051,FUE,Fuerteventura Airport,GCFV,Fuerteventura,Spain,28.4526996613,-13.8638000488
1052,VDE,Hierro Airport,GCHI,Hierro,Spain,27.8148002625,-17.8871002197
1053,SPC,La Palma Airport,GCLA,Santa Cruz De La Palma,Spain,28.626499,-17.7556
1054,LPA,Gran Canaria Airport,GCLP,Gran Canaria,Spain,27.9319000244,-15.3865995407
1055,ACE,Lanzarote Airport,GCRR,Arrecife,Spain,28.945499,-13.6052
1056,TFS,Tenerife South Airport,GCTS,Tenerife,Spain,28.044500351,-16.5725002289
1057,TFN,Tenerife Norte Airport,GCXO,Tenerife,Spain,28.4827003479,-16.3414993286
1058,MLN,Melilla Airport,GEML,Melilla,Spain,35.279800415,-2.9562599659
1059,FNA,Lungi International Airport,GFLL,Freetown,Sierra Leone,8.61644,-13.1955
1060,,Cufar Airport,GGCF,Cufar,Guinea-Bissau,11.287899971,-15.1805000305
1062,MLW,Spriggs Payne Airport,GLMR,Monrovia,Liberia,6.2890601158,-10.7587003708
1063,ROB,Roberts International Airport,GLRB,Monrovia,Liberia,6.23379,-10.3623
1064,AGA,Al Massira Airport,GMAD,Agadir,Morocco,30.3250007629,-9.413069725
1065,TTA,Tan Tan Airport,GMAT,Tan Tan,Morocco,28.4482002258,-11.1612997055
1066,FEZ,Saïss Airport,GMFF,Fes,Morocco,33.9272994995,-4.9779601097
1067,,Ifrane Airport,GMFI,Ifrane,Morocco,33.5052986145,-5.152900219
1068,ERH,Moulay Ali Cherif Airport,GMFK,Er-rachidia,Morocco,31.9475002289,-4.3983302116
1069,MEK,Bassatine Airport,GMFM,Meknes,Morocco,33.8791007996,-5.5151200294
1070,OUD,Angads Airport,GMFO,Oujda,Morocco,34.7872009277,-1.9239900112
1071,GMD,Ben Slimane Airport,GMMB,Ben Slimane,Morocco,33.655399,-7.22145
1072,RBA,Rabat-Salé Airport,GMME,Rabat,Morocco,34.051498,-6.75152
1074,CMN,Mohammed V International Airport,GMMN,Casablanca,Morocco,33.3675003052,-7.5899701118
1075,RAK,Menara Airport,GMMX,Marrakech,Morocco,31.6068992615,-8.0362997055
1076,NNA,Kenitra Airport,GMMY,Kentira,Morocco,34.2989006042,-6.5958800316
1077,OZZ,Ouarzazate Airport,GMMZ,Ouarzazate,Morocco,30.9391002655,-6.909430027
1078,AHU,Cherif Al Idrissi Airport,GMTA,Al Hociema,Morocco,35.1771011353,-3.8395199776
1079,TTU,Saniat R'mel Airport,GMTN,Tetouan,Morocco,35.5942993164,-5.3200201988
1080,TNG,Ibn Batouta Airport,GMTT,Tanger,Morocco,35.7268981934,-5.9168901444
1081,ZIG,Ziguinchor Airport,GOGG,Ziguinchor,Senegal,12.5556,-16.281799
1082,CSK,Cap Skirring Airport,GOGS,Cap Skiring,Senegal,12.39533,-16.748
1083,KLC,Kaolack Airport,GOOK,Kaolack,Senegal,14.146900177,-16.0513000488
1084,DKR,Léopold Sédar Senghor International Airport,GOOY,Dakar,Senegal,14.7397003174,-17.4902000427
1085,XLS,Saint Louis Airport,GOSS,St. Louis,Senegal,16.0508003235,-16.4631996155
1086,BXE,Bakel Airport,GOTB,Bakel,Senegal,14.8472995758,-12.4682998657
1087,KGG,Kédougou Airport,GOTK,Kedougou,Senegal,12.5722999573,-12.2202997208
1088,TUD,Tambacounda Airport,GOTT,Tambacounda,Senegal,13.7368001938,-13.6531000137
1089,AEO,Aioun el Atrouss Airport,GQNA,Aioun El Atrouss,Mauritania,16.7112998962,-9.6378803253
1090,TIY,Tidjikja Airport,GQND,Tidjikja,Mauritania,18.5701007843,-11.423500061
1091,KFA,Kiffa Airport,GQNF,Kiffa,Mauritania,16.5900001526,-11.4062004089
1092,EMN,Néma Airport,GQNI,Nema,Mauritania,16.6219997406,-7.3165998459
1093,KED,Kaédi Airport,GQNK,Kaedi,Mauritania,16.1595001221,-13.5075998306
1094,NKC,Nouakchott–Oumtounsy International Airport,GQNO,Nouakschott,Mauritania,18.31,-15.9697222
1095,SEY,Sélibaby Airport,GQNS,Selibabi,Mauritania,15.1796998978,-12.2073001862
1096,ATR,Atar International Airport,GQPA,Atar,Mauritania,20.5067996979,-13.0431995392
1097,NDB,Nouadhibou International Airport,GQPP,Nouadhibou,Mauritania,20.9330997467,-17.0300006866
1098,,Bir Moghrein Airport,GQPT,Bir Moghrein,Mauritania,25.236700058,-11.5887002945
1099,FIG,Fria Airport,GUFA,Fira,Guinea,10.3506002426,-13.5691995621
1100,FAA,Faranah Airport,GUFH,Faranah,Guinea,10.0354995728,-10.7698001862
1101,LEK,Tata Airport,GULB,Labe,Guinea,11.3261003494,-12.2868003845
1102,SID,Amílcar Cabral International Airport,GVAC,Amilcar Cabral,Cape Verde,16.7414,-22.9494
1103,BVC,Rabil Airport,GVBA,Boa Vista,Cape Verde,16.1364994049,-22.8889007568
1104,MMO,Maio Airport,GVMA,Maio,Cape Verde,15.1559000015,-23.2136993408
1105,SNE,Preguiça Airport,GVSN,Sao Nocolau Island,Cape Verde,16.5883998871,-24.2847003937
1106,VXE,São Pedro Airport,GVSV,Sao Vicente Island,Cape Verde,16.8332004547,-25.0552997589
1107,ADD,Addis Ababa Bole International Airport,HAAB,Addis Ababa,Ethiopia,8.9778900147,38.7993011475
1108,,Lideta Army Airport,HAAL,Addis Ababa,Ethiopia,9.003685,38.725498
1109,AMH,Arba Minch Airport,HAAM,Arba Minch,Ethiopia,6.0393900871,37.5904998779
1110,AXU,Axum Airport,HAAX,Axum,Ethiopia,14.1468000412,38.7728004456
1111,BJR,Bahir Dar Airport,HABD,Bahar Dar,Ethiopia,11.6080999374,37.3216018677
1112,DIR,Aba Tenna Dejazmach Yilma International Airport,HADR,Dire Dawa,Ethiopia,9.6246995926,41.8541984558
1113,GMB,Gambella Airport,HAGM,Gambella,Ethiopia,8.1287603378,34.5630989075
1114,GDQ,Gonder Airport,HAGN,Gondar,Ethiopia,12.519900322,37.4339981079
1116,JIM,Jimma Airport,HAJM,Jimma,Ethiopia,7.6660900116,36.8166007996
1117,LLI,Lalibella Airport,HALL,Lalibella,Ethiopia,11.9750003815,38.9799995422
1118,MQX,Mekele Airport,HAMK,Makale,Ethiopia,13.4673995972,39.5335006714
1119,ASO,Asosa Airport,HASO,Asosa,Ethiopia,10.0185003281,34.5862998962
1120,BJM,Bujumbura International Airport,HBBA,Bujumbura,Burundi,-3.3240199089,29.3185005188
1121,HGA,Egal International Airport,HCMH,Hargeisa,Somalia,9.5181703568,44.0887985229
1122,BBO,Berbera Airport,HCMI,Berbera,Somalia,10.3892002106,44.9411010742
1123,KMU,Kisimayu Airport,HCMK,Kismayu,Somalia,-0.3773530126,42.4592018127
1126,ALY,El Nouzha Airport,HEAX,Alexandria,Egypt,31.1839008331,29.9489002228
1127,ABS,Abu Simbel Airport,HEBL,Abu Simbel,Egypt,22.3759994507,31.611700058
1128,CAI,Cairo International Airport,HECA,Cairo,Egypt,30.1219005585,31.4055995941
1129,CWE,Cairo West Airport,HECW,Cairo,Egypt,30.116399765,30.9153995514
1130,HRG,Hurghada International Airport,HEGN,Hurghada,Egypt,27.1783008575,33.7994003296
1131,EGH,El Gora Airport,HEGR,El Gorah,Egypt,31.068559,34.129629
1132,LXR,Luxor International Airport,HELX,Luxor,Egypt,25.671,32.7066
1133,MUH,Mersa Matruh Airport,HEMM,Mersa-matruh,Egypt,31.3253993988,27.2217006683
1134,PSD,Port Said Airport,HEPS,Port Said,Egypt,31.2793998718,32.2400016785
1135,SKV,St Catherine International Airport,HESC,St. Catherine,Egypt,28.685300827,34.0625
1136,ASW,Aswan International Airport,HESN,Aswan,Egypt,23.9643993378,32.8199996948
1137,ELT,El Tor Airport,HETR,El-tor,Egypt,28.2089996338,33.6455001831
1138,EDL,Eldoret International Airport,HKEL,Eldoret,Kenya,0.4044579864,35.238899231
1139,GGM,Kakamega Airport,HKKG,Kakamega,Kenya,0.2713420093,34.7873001099
1140,KIS,Kisumu Airport,HKKI,Kisumu,Kenya,-0.086139001,34.7289009094
1141,KTL,Kitale Airport,HKKT,Kitale,Kenya,0.971988976,34.9585990906
1143,LOK,Lodwar Airport,HKLO,Lodwar,Kenya,3.1219699383,35.6086997986
1144,LAU,Manda Airstrip,HKLU,Lamu,Kenya,-2.2524199486,40.9131011963
1145,MBA,Mombasa Moi International Airport,HKMO,Mombasa,Kenya,-4.0348300934,39.5942001343
1146,,Naivasha Airport,HKNV,Naivasha,Kenya,-0.787953,36.433494
1147,WIL,Nairobi Wilson Airport,HKNW,Nairobi,Kenya,-1.3217200041,36.8148002625
1148,,Moi Air Base,HKRE,Nairobi,Kenya,-1.2772699595,36.8623008728
1149,WJR,Wajir Airport,HKWJ,Wajir,Kenya,1.73324,40.091599
1150,,Bu Attifel Airport,HLFL,Buattifel,Libya,28.7954006195,22.0809001923
1151,,Warehouse 59e Airport,HLGL,Giallo,Libya,28.6385002136,21.4379997253
1152,GHT,Ghat Airport,HLGT,Ghat,Libya,25.1455993652,10.1426000595
1153,AKF,Kufra Airport,HLKF,Kufra,Libya,24.1786994934,23.313999176
1154,BEN,Benina International Airport,HLLB,Benghazi,Libya,32.0968017578,20.2695007324
1156,SEB,Sabha Airport,HLLS,Sebha,Libya,26.9869995117,14.4724998474
1157,TIP,Tripoli International Airport,HLLT,Tripoli,Libya,32.6635017395,13.1590003967
1158,LMQ,Marsa Brega Airport,HLMB,Marsa Brega,Libya,30.3780994415,19.5764007568
1159,,Ras Lanuf Oil Airport,HLNF,Ras Lanouf V 40,Libya,30.5,18.5272006989
1160,HUQ,Hon Airport,HLON,Hon,Libya,29.1100997925,15.9656000137
1161,,Dahra Airport,HLRA,Dahra,Libya,29.4726009369,17.9349002838
1162,LTD,Ghadames East Airport,HLTD,Ghadames,Libya,30.1516990662,9.7153100967
1163,,Zella 74 Airport,HLZA,Zella 74,Libya,28.5898990631,17.2938995361
1164,GYI,Gisenyi Airport,HRYG,Gisenyi,Rwanda,-1.6771999598,29.2588996887
1165,KGL,Kigali International Airport,HRYR,Kigali,Rwanda,-1.96863,30.1395
1166,KME,Kamembe Airport,HRZA,Kamembe,Rwanda,-2.4622399807,28.9078998566
1167,DOG,Dongola Airport,HSDN,Dongola,Sudan,19.1539001465,30.4300994873
1168,RSS,Damazin Airport,HSDZ,Damazin,Sudan,11.7859,34.3367
1169,ELF,El Fasher Airport,HSFS,El Fasher,Sudan,13.6148996353,25.3246002197
1170,KSL,Kassala Airport,HSKA,Kassala,Sudan,15.3874998093,36.3288002014
1171,KDX,Kadugli Airport,HSLI,Kadugli,Sudan,11.1379995346,29.7010993958
1172,EBD,El Obeid Airport,HSOB,El Obeid,Sudan,13.1532001495,30.2327003479
1173,JUB,Juba International Airport,HSSJ,Juba,South Sudan,4.872010231,31.6011009216
1174,MAK,Malakal Airport,HSSM,Malakal,Sudan,9.5589704514,31.6522006989
1175,KRT,Khartoum International Airport,HSSS,Khartoum,Sudan,15.5895004272,32.5531997681
1176,ARK,Arusha Airport,HTAR,Arusha,Tanzania,-3.3677899837,36.6333007813
1177,DAR,Julius Nyerere International Airport,HTDA,Dar Es Salaam,Tanzania,-6.87811,39.202599
1178,DOD,Dodoma Airport,HTDO,Dodoma,Tanzania,-6.170440197,35.7526016235
1179,IRI,Iringa Airport,HTIR,Iringa,Tanzania,-7.6686301231,35.7521018982
1180,JRO,Kilimanjaro International Airport,HTKJ,Kilimanjaro,Tanzania,-3.4294099808,37.0745010376
1181,LKY,Lake Manyara Airport,HTLM,Lake Manyara,Tanzania,-3.3763101101,35.8182983398
1182,MYW,Mtwara Airport,HTMT,Mtwara,Tanzania,-10.339099884,40.1818008423
1183,MWZ,Mwanza Airport,HTMW,Mwanza,Tanzania,-2.4444899559,32.9327011108
1184,PMA,Pemba Airport,HTPE,Pemba,Tanzania,-5.2572598457,39.8114013672
1185,TGT,Tanga Airport,HTTG,Tanga,Tanzania,-5.0923600197,39.0712013245
1186,ZNZ,Abeid Amani Karume International Airport,HTZA,Zanzibar,Tanzania,-6.22202,39.224899
1187,EBB,Entebbe International Airport,HUEN,Entebbe,Uganda,0.042386,32.443501
1189,SRT,Soroti Airport,HUSO,Soroti,Uganda,1.7276899815,33.6227989197
1190,TIA,Tirana International Airport Mother Teresa,LATI,Tirana,Albania,41.4146995544,19.7206001282
1191,BOJ,Burgas Airport,LBBG,Bourgas,Bulgaria,42.5695991516,27.5151996613
1192,GOZ,Gorna Oryahovitsa Airport,LBGO,Gorna Orechovica,Bulgaria,43.1514015198,25.7129001617
1193,PDV,Plovdiv International Airport,LBPD,Plovdiv,Bulgaria,42.067799,24.8508
1194,SOF,Sofia Airport,LBSF,Sofia,Bulgaria,42.6966934204,23.4114360809
1195,SZR,Stara Zagora Airport,LBSZ,Stara Zagora,Bulgaria,42.3766667,25.655
1196,VAR,Varna Airport,LBWN,Varna,Bulgaria,43.232101,27.8251
1197,LCA,Larnaca International Airport,LCLK,Larnaca,Cyprus,34.8750991821,33.6249008179
1198,PFO,Paphos International Airport,LCPH,Paphos,Cyprus,34.7179985046,32.4856987
1199,AKT,RAF Akrotiri,LCRA,Akrotiri,Cyprus,34.590401,32.9879
1200,DBV,Dubrovnik Airport,LDDU,Dubrovnik,Croatia,42.5614013672,18.2681999207
1201,,Osijek-Čepin Airfield,LDOC,Cepin,Croatia,45.5427778,18.6319444
1202,OSI,Osijek Airport,LDOS,Osijek,Croatia,45.4626998901,18.8101997375
1203,PUY,Pula Airport,LDPL,Pula,Croatia,44.8935012817,13.9222002029
1204,,Grobnicko Polje Airport,LDRG,Grobnik,Croatia,45.3795013428,14.5038003922
1205,RJK,Rijeka Airport,LDRI,Rijeka,Croatia,45.2168998718,14.5703001022
1206,SPU,Split Airport,LDSP,Split,Croatia,43.538898468,16.2980003357
1207,,Varaždin Airport,LDVA,Varazdin,Croatia,46.2946472168,16.382932663
1208,ZAG,Zagreb Airport,LDZA,Zagreb,Croatia,45.7429008484,16.0687999725
1209,ZAD,Zadar Airport,LDZD,Zadar,Croatia,44.108299,15.3467
1210,,Udbina Air Base,LDZU,Udbina,Croatia,44.557598114,15.7743997574
1211,ABC,Albacete-Los Llanos Airport,LEAB,Albacete,Spain,38.9485015869,-1.8635200262
1212,ALC,Alicante International Airport,LEAL,Alicante,Spain,38.2821998596,-0.5581560135
1213,LEI,Almería International Airport,LEAM,Almeria,Spain,36.8438987732,-2.3701000214
1214,OVD,Asturias Airport,LEAS,Aviles,Spain,43.5635986328,-6.0346198082
1215,ODB,Córdoba Airport,LEBA,Cordoba,Spain,37.841999054,-4.8488798141
1216,BIO,Bilbao Airport,LEBB,Bilbao,Spain,43.3011016846,-2.9106099606
1218,BCN,Barcelona International Airport,LEBL,Barcelona,Spain,41.2971,2.07846
1219,BJZ,Badajoz Airport,LEBZ,Badajoz,Spain,38.8913002014,-6.8213300705
1220,LCG,A Coruña Airport,LECO,La Coruna,Spain,43.302101,-8.37726
1221,,Armilla Air Base,LEGA,Granada,Spain,37.1332016,-3.63568997
1222,GRO,Girona Airport,LEGE,Gerona,Spain,41.901000977,2.7605500221
1223,GRX,Federico Garcia Lorca Airport,LEGR,Granada,Spain,37.1887016296,-3.7773599625
1224,,Getafe Air Base,LEGT,Madrid,Spain,40.2941017151,-3.7238299847
1225,IBZ,Ibiza Airport,LEIB,Ibiza,Spain,38.8728981018,1.3731199503
1226,XRY,Jerez Airport,LEJR,Jerez,Spain,36.7445983887,-6.0601100922
1227,MJV,San Javier Airport,LELC,Murcia,Spain,37.7750015259,-0.8123890162
1229,MAD,Adolfo Suárez Madrid–Barajas Airport,LEMD,Madrid,Spain,40.471926,-3.56264
1230,AGP,Málaga Airport,LEMG,Malaga,Spain,36.6749000549,-4.4991102219
1231,MAH,Menorca Airport,LEMH,Menorca,Spain,39.8625984192,4.2186498642
1232,OZP,Moron Air Base,LEMO,Sevilla,Spain,37.1749000549,-5.615940094
1233,,Ocaña Airport,LEOC,Ocana,Spain,39.9375,-3.5033299923
1234,PNA,Pamplona Airport,LEPP,Pamplona,Spain,42.7700004578,-1.646329999
1235,,Alcantarilla Air Base,LERI,Murcia,Spain,37.951099,-1.23032
1236,REU,Reus Air Base,LERS,Reus,Spain,41.1473999023,1.1671700478
1237,ROZ,Rota Naval Station Airport,LERT,Rota,Spain,36.645198822,-6.349460125
1238,SLM,Salamanca Airport,LESA,Salamanca,Spain,40.9520988464,-5.5019898415
1239,,Son Bonet Airport,LESB,Son Bonet,Spain,39.5988998413,2.7027800083
1241,,San Luis Airport,LESL,San Luis,Spain,39.8622016907,4.2583298683
1242,EAS,San Sebastian Airport,LESO,San Sebastian,Spain,43.3564987183,-1.7906099558
1243,SCQ,Santiago de Compostela Airport,LEST,Santiago,Spain,42.8963012695,-8.415140152
1244,LEU,Pirineus - la Seu d'Urgel Airport,LESU,Seo De Urgel,Spain,42.3386,1.40917
1245,TOJ,Torrejón Airport,LETO,Madrid,Spain,40.4967002869,-3.4458699226
1246,VLC,Valencia Airport,LEVC,Valencia,Spain,39.4893,-0.481625
1247,VLL,Valladolid Airport,LEVD,Valladolid,Spain,41.7061004639,-4.851940155
1249,VIT,Vitoria/Foronda Airport,LEVT,Vitoria,Spain,42.8828010559,-2.7244699001
1250,VGO,Vigo Airport,LEVX,Vigo,Spain,42.2318000793,-8.6267700195
1251,SDR,Santander Airport,LEXJ,Santander,Spain,43.4271011353,-3.8200099468
1252,ZAZ,Zaragoza Air Base,LEZG,Zaragoza,Spain,41.6661987305,-1.0415500402
1253,SVQ,Sevilla Airport,LEZL,Sevilla,Spain,37.4179992676,-5.8931097984
1254,CQF,Calais-Dunkerque Airport,LFAC,Calais,France,50.9621009827,1.9547599554
1255,,Péronne-Saint-Quentin Airport,LFAG,Peronne,France,49.8685,3.02958
1256,,Nangis-Les Loges Airport,LFAI,Nangis,France,48.5961990356,3.0067899227
1257,,Bagnoles-de-l'Orne-Couterne Airport,LFAO,Bagnole-de-l'orne,France,48.5457992554,-0.3874439895
1258,BYF,Albert-Bray Airport,LFAQ,Albert,France,49.9715003967,2.6976599693
1259,LTQ,Le Touquet-Côte d'Opale Airport,LFAT,Le Tourquet,France,50.5173988342,1.6205899715
1260,XVS,Valenciennes-Denain Airport,LFAV,Valenciennes,France,50.3258018494,3.4612600803
1261,,Amiens-Glisy Airport,LFAY,Amiens,France,49.873004,2.387074
1262,AGF,Agen-La Garenne Airport,LFBA,Agen,France,44.1747016907,0.5905560255
1263,,Cazaux (BA 120) Air Base,LFBC,Cazaux,France,44.5332984924,-1.125
1264,BOD,Bordeaux-Mérignac Airport,LFBD,Bordeaux,France,44.8283004761,-0.7155560255
1265,EGC,Bergerac-Roumanière Airport,LFBE,Bergerac,France,44.8252983093,0.5186110139
1266,,Toulouse-Francazal (BA 101) Air Base,LFBF,Toulouse,France,43.5456008911,1.3674999475
1267,CNG,Cognac-Châteaubernard (BA 709) Air Base,LFBG,Cognac,France,45.6582984924,-0.3174999952
1268,PIS,Poitiers-Biard Airport,LFBI,Poitiers,France,46.5876998901,0.3066659868
1269,MCU,Montluçon-Guéret Airport,LFBK,Montlucon-gueret,France,46.2225990295,2.3639600277
1270,LIG,Limoges Airport,LFBL,Limoges,France,45.8628005981,1.1794400215
1271,,Mont-de-Marsan (BA 118) Air Base,LFBM,Mont-de-marsan,France,43.911701,-0.5075
1272,NIT,Niort-Souché Airport,LFBN,Niort,France,46.313477,-0.394529
1273,TLS,Toulouse-Blagnac Airport,LFBO,Toulouse,France,43.629101,1.36382
1274,PUF,Pau Pyrénées Airport,LFBP,Pau,France,43.3800010681,-0.41861099
1275,,Muret-Lherm Airport,LFBR,La Rochelle,France,43.4488983154,1.2633299828
1276,LDE,Tarbes-Lourdes-Pyrénées Airport,LFBT,Tarbes,France,43.1786994934,-0.0064389999
1277,ANG,Angoulême-Brie-Champniers Airport,LFBU,Angouleme,France,45.7291984558,0.2214560062
1278,BVE,Brive Souillac Airport,LFSL,Brive,France,45.039722,1.485556
1279,PGX,Périgueux-Bassillac Airport,LFBX,Perigueux,France,45.1981010437,0.8155559897
1280,BIQ,Biarritz-Anglet-Bayonne Airport,LFBZ,Biarritz-bayonne,France,43.4683333,-1.5311111
1281,ZAO,Cahors-Lalbenque Airport,LFCC,Cahors,France,44.351398468,1.4752800465
1282,,Saint-Girons-Antichan Airport,LFCG,St.-girons,France,43.0078010559,1.1031500101
1283,,Arcachon-La Teste-de-Buch Airport,LFCH,Arcachon,France,44.596401,-1.11083
1284,LBI,Albi-Le Séquestre Airport,LFCI,Albi,France,43.913898468,2.1130599976
1285,DCM,Castres-Mazamet Airport,LFCK,Castres,France,43.5563011169,2.2891800404
1286,,Toulouse-Lasbordes Airport,LFCL,Toulouse,France,43.586101532,1.4991699457
1287,,Millau-Larzac Airfield,LFCM,Millau,France,43.9893,3.183
1288,,Graulhet-Montdragon Airport,LFCQ,Graulhet,France,43.7710990906,2.0108299255
1289,RDZ,Rodez-Marcillac Airport,LFCR,Rodez,France,44.4079017639,2.4826700687
1290,,Ussel-Thalamy Airport,LFCU,Ussel,France,45.5346984863,2.4238901138
1291,,Villeneuve-sur-Lot Airport,LFCW,Villeneuve-sur-lot,France,44.396900177,0.7588890195
1292,RYN,Royan-Médis Airport,LFCY,Royan,France,45.6281013489,-0.9725000262
1293,,Mimizan Airport,LFCZ,Mimizan,France,44.145928,-1.16432
1294,,Aire-sur-l'Adour Airport,LFDA,Aire-sur-l'adour,France,43.709400177,-0.2452780008
1295,XMW,Montauban Airport,LFDB,Montauban,France,44.0256996155,1.3780399561
1296,,Auch-Lamothe Airport,LFDH,Auch,France,43.687801,0.601667
1297,,Libourne-Artigues-de-Lussac Airport,LFDI,Libourne,France,44.982498,-0.134722
1298,,Pamiers-Les Pujols Airport,LFDJ,Pamiers,France,43.0905990601,1.6958299875
1299,,Marmande-Virazeil Airport,LFDM,Marmande,France,44.4989013672,0.2005140036
1300,RCO,Rochefort-Saint-Agnant (BA 721) Airport,LFDN,Rochefort,France,45.8877983093,-0.9830560088
1301,,Pontivy Airport,LFED,Pontivy,France,48.0584983826,-2.9218299389
1302,,Aubigny-sur-Nère Airport,LFEH,Aubigny-sur-nere,France,47.480556,2.394167
1303,,Guiscriff Scaer Airport,LFES,Guiscriff-scaer,France,48.0525016785,-3.6647200584
1305,,Ancenis Airport,LFFI,Ancenis,France,47.4081001282,-1.1775000095
1306,,Brienne-le-Château Airport,LFFN,Brienne-le Chateau,France,48.4297981262,4.4822201729
1307,CMR,Colmar-Houssen Airport,LFGA,Colmar,France,48.1099014282,7.3590102196
1308,,Beaune-Challanges Airport,LFGF,Beaune,France,47.005901,4.89342
1309,DLE,Dole-Tavaux Airport,LFGJ,Dole,France,47.042686,5.435063
1310,,Joigny Airport,LFGK,Joigny,France,47.9921989441,3.3922200203
1311,,Verdun-Le Rozelier Airfield,LFGW,Verdun,France,49.122398,5.46905
1312,OBS,Aubenas-Ardèche Méridional Airport,LFHO,Aubenas-vals-lanas,France,44.544203,4.372192
1313,LPY,Le Puy-Loudes Airport,LFHP,Le Puy,France,45.0806999207,3.7628901005
1314,,Saint-Flour-Coltines Airport,LFHQ,St.-flour,France,45.0764007568,2.9936099052
